num,id_unique,nameuser,ratinguser,dateuser,textreviewuser,propertyinfo,resort_type,apart_type,ghouse_type,hotels_type,capsule_type,homest_type,camp_type,villas_type,propertytype,ratingprop,good_label,conve_label,impre_label,superb_label,propertylabel,reviewamount,randomrate,propertyaddress,longitude,latitude,landmarknear,,,
1226,41509,Wulan D.,8.5,03-Apr-21,,Sutan Raja Hotel and Convention Centre,0,0,0,1,0,0,0,0,HOTELS,8.2,0,1,0,0,Convenient,1786,1,"Jl. Raya Soreang No.10 KM.17 Soreang, Soreang, Bandung, Jawa Barat, Indonesia, 40910",-7.0166924,107.5472021,Kawah Putih,,,
1864,42053,wan y. s.,8.5,03-Oct-17,"This is a well kept European style villa. We enjoy the stay and would like to thank you the great hospitality shown by Wanto, the owner of the villa. Thank you! Well done on the service provided.",Notes from the Mountains,0,0,0,0,0,0,0,1,VILLAS,8.7,0,0,1,0,Impressive,24,4,"Jalan Krisan No.1,RT 03 RW 010, Kavling Stroberi, Terusan Sersan Bajuri, Cihideung, Parongpong, Lembang, Bandung, Jawa Barat, Indonesia, 40558",-6.8122843,107.596327,Kawah Putih,,,
2236,55160,Umi N.,8.8,02-Dec-19,,Rumah Kiboku,0,0,1,0,0,0,0,0,GUEST HOUSES,8.7,0,0,1,0,Impressive,231,5,"Jalan Raya Dago Golf No. 2B, Dago Atas, Bandung, Jawa Barat, Indonesia, 40135",-6.866951,107.6247302,Taman Hutan Raya Juanda,,,
294,56784,Imelda G.,5.5,24-Oct-21,Bed sheet smell bad. Dirty bathroom.,The Summit Siliwangi Hotel,0,0,0,1,0,0,0,0,HOTELS,8.4,0,0,1,0,Impressive,747,5,"Jl. Seram No.5, Citarum, kec.Bandung Wetan,Kota Bandung, Jawa Barat, Riau Street, Bandung, Jawa Barat, Indonesia, 40105",-6.9077896,107.6127927,Sate Building,,,
589,69212,Adhitya P.,6.3,01-Nov-21,"No signal, no wifi, dirty towel, no pillow cover __",Hotel Riau Bandung,0,0,1,0,0,0,0,0,GUEST HOUSES,7.9,0,1,0,0,Convenient,970,5,"Jl. RE. Martadinata No. 191, Sumurbandung, Riau Street, Bandung, Jawa Barat, Indonesia, 40114",-6.9115576,107.6279597,Sate Building,,,
558,81015,Imelda L.,9.7,06-Jan-22,I stayed with my family here for 3 nights. We booked 1 family room and 1 deluxe king room. We really enjoyed our stay here. Both rooms were clean and spacious. The location's perfect. Will definitely stay here again in the future. Thanks Enreha Guest House :),ERENHA Guest House,0,0,1,0,0,0,0,0,GUEST HOUSES,8.9,0,0,1,0,Impressive,950,4,"Jalan Bengawan No.57, Bandung, Riau Street, Bandung, Jawa Barat, Indonesia, 40114",-6.9103546,107.628399,Sate Building,,,
2469,81951,Dyah l.,8.5,13-Sep-19,,Zeva Villa Dago,0,0,0,0,0,0,0,1,VILLAS,8.4,0,0,1,0,Impressive,54,5,"Jalan Ranca kendal Raya No 175 Rt 05 Rw 01 Bandung, Dago Atas, Bandung, Jawa Barat, Indonesia, 40190",-6.872684,107.6278651,Taman Hutan Raya Juanda,,,
417,101841,suryo c.,9.7,30-Apr-19,Nice trip nice hotel. We are nice pleasure to stay here.,Sawunggaling Hotel,0,0,1,0,0,0,0,0,GUEST HOUSES,8.6,0,0,1,0,Impressive,1303,5,"Jl. Sawunggaling No. 13 Bandung , Dago, Bandung, Jawa Barat, Indonesia, 40106",-6.9008714,107.6094152,Sate Building,,,
2321,145612,Najia A. U.,9.4,18-Dec-19,"Everything is good but please install elevator,",The Regia Dago,0,0,0,1,0,0,0,0,HOTELS,8.5,0,0,1,0,Impressive,1094,5,"jl. dago 462 E - F, Dago Atas, Bandung, Jawa Barat, Indonesia, 40134",-6.8675192,107.6208951,Taman Hutan Raya Juanda,,,
768,190661,Waris S.,6,23-Jan-19,"The location is great but the hotel is dirty, spooky and so unfriendly. When I come to the hotel, at the front door is not clean and a lot of red ants spreading. In the room, the sheet is so...yellowish. the bath room so dusty.",De'Qur Hotel Bandung,0,0,0,1,0,0,0,0,HOTELS,7.6,0,1,0,0,Convenient,866,4,"Jalan Dipatiukur No.27, Bandung, Dago, Bandung, Jawa Barat, Indonesia, 40122",-6.8955135,107.6163928,Geological Museum,,,
588,200713,Guest-7hj7z1,9,01-Nov-21,"Friendly staff, unfortunately the sound from nearby cafe is so loud, made me hard to get a nice sleep. Bathroom need some repairs.",Hotel Riau Bandung,0,0,1,0,0,0,0,0,GUEST HOUSES,7.9,0,1,0,0,Convenient,970,5,"Jl. RE. Martadinata No. 191, Sumurbandung, Riau Street, Bandung, Jawa Barat, Indonesia, 40114",-6.9115576,107.6279597,Sate Building,,,
567,207912,Frassetiyo,10,26-Feb-22,,Hotel Neo Dipatiukur by ASTON,0,0,0,1,0,0,0,0,HOTELS,8.6,0,0,1,0,Impressive,5055,4,"Jalan Dipatiukur No 72 - 74, Dago, Bandung, Jawa Barat, Indonesia, 40122",-6.8895435,107.6164508,Sate Building,,,
2408,214591,Sih W. W.,8.5,18-Jan-16,Everything is perfect except the wifi. It was not working during our stay,4 BR City View Villa with a private pool 1,0,0,0,0,0,0,0,1,VILLAS,8.5,0,0,1,0,Impressive,31,5,"Jalan Bukit Cemara Hijau No. 19 Resort Dago Pakar, Dago, Bandung, Jawa Barat, Indonesia, 40134",-6.8616636,107.6503191,Taman Hutan Raya Juanda,,,
1998,254031,Pingkan N.,5.4,13-Jan-20,"Very bad, i’m so sorry, it’s terrible horror, the room is not clean enough, the curtain is torn, the bed will not made you slept well, especially for the toilet, it’s really dirty. The hotel should be renovated.",Hotel Istana Bandung,0,0,0,1,0,0,0,0,HOTELS,6.5,1,0,0,0,Good,1060,5,"Jalan Lembong No. 44, Braga, Bandung, Jawa Barat, Indonesia, 40110",-6.9178044,107.6121198,"Braga, Asia Afrika",,,
1661,254996,Yudi P.,10,05-Feb-20,Good hotel good views everything's good____,Saung Balibu Hotel,0,0,0,1,0,0,0,0,HOTELS,8.5,0,0,1,0,Impressive,1190,3,"Jalan Tangkuban Perahu No. 168 Cibogo - Cikole Lembang - Bandung, Lembang, Bandung, Jawa Barat, Indonesia, 40390",-6.8091287,107.6464558,Kawah Putih,,,
1798,269065,Yasinta N.,6,10-Feb-22,,Grand Hotel Lembang,0,0,0,1,0,0,0,0,HOTELS,7.8,0,1,0,0,Convenient,2816,5,"Jl. Raya Lembang No. 272, Lembang, Bandung, Jawa Barat, Indonesia, 40390",-6.811868,107.616338,Kawah Putih,,,
1564,277580,Ricky A.,8.5,07-Jun-19,"Nice place, nice room. After my last visit for 20+ years ago, still had a good vibe. Food is good, but the pool need to be clean. Overal my family is happy, thank you!",Hotel & Banquet Panorama Lembang,0,0,0,1,0,0,0,0,HOTELS,8.3,0,0,1,0,Impressive,330,4,"Jalan Tangkuban Perahu No 29, Lembang, Bandung, Jawa Barat, Indonesia, 40390",-6.8105882,107.6244453,Kawah Putih,,,
2179,281563,Budi A. R.,6,15-Sep-20,Services and facilities are very poor. Parking is very narrow.,7 BR Hill View Villa with a private pool 1,0,0,0,0,0,0,0,1,VILLAS,8.9,0,0,1,0,Impressive,16,5,"Jalan Dago pakar Permai II no.53B Resort Dago Pakar, Dago Atas, Bandung, Jawa Barat, Indonesia, 40198",-6.8660319,107.635536,Taman Hutan Raya Juanda,,,
1744,283569,Ria P.,8.5,21-Aug-20,"Nice place for refreshing, recommended villa to stay with family.",Vila Istana Bunga - Arlen,0,0,0,0,0,0,0,1,VILLAS,8.3,0,0,1,0,Impressive,13,5,"Jl Kolonel Masturi km 9, Lembang, Parongpong, Bandung, Jawa Barat, Indonesia, 40558",-6.8028641,107.5829828,Kawah Putih,,,
1834,295222,Ziah U.,9.4,21-Oct-19,,Samakta Guest House,0,0,1,0,0,0,0,0,GUEST HOUSES,8.8,0,0,1,0,Impressive,362,5,"Jalan Hortikultura No.01 RT 01 RW 05 Desa Jayagiri Kecamatan Lembang, Lembang, Bandung, Jawa Barat, Indonesia, 40390",-6.8100346,107.6171406,Kawah Putih,,,
2588,307923,Fajar N.,8.8,28-Dec-20,,Concordia Hotel Bandung,0,0,0,1,0,0,0,0,HOTELS,8.4,0,0,1,0,Impressive,408,5,"Jalan Rancabentang No 2 Ciumbuleuit - Cidadap, Ciumbuleuit, Bandung, Jawa Barat, Indonesia, 40141",-6.8710311,107.6091051,Taman Hutan Raya Juanda,,,
1911,322549,Sapta s.,10,30-May-18,"Very friendly service, a quiet atmosphere both for family gatherings and good food.",Villa Rasberry Garden,0,0,0,0,0,0,0,1,VILLAS,8.6,0,0,1,0,Impressive,26,4,"Jalan Tangkuban Perahu No.156, Cibogo,Lembang, Lembang, Bandung, Jawa Barat, Indonesia",-6.8091341,107.6463993,Kawah Putih,,,
1753,329109,Vicke T. O.,6,17-Jun-18,Very dirty villa hot water facilities not available in every bathroom. Very disappointing and I give up I no longer want to order Villa Istana Bunga.,Villa Istana Bunga - Chamomile,0,0,0,0,0,0,0,1,VILLAS,7.3,0,1,0,0,Convenient,6,4,"Jalan Kol Masturi KM 9 Parongpong Cisarua, Lembang, Parongpong, Bandung, Jawa Barat, Indonesia",-6.8028641,107.5829828,Kawah Putih,,,
2174,331058,Prianugra N.,9.7,07-Jan-20,"The Villa is quite big, 4 stories long with 6 bedrooms, kitchen, 3 living rooms, amenities for your staying needs (kitchen utensils, food utensils, laundry utensils, Hair dryer, etc.) and a swimming pool. Every room is clean as well. I really like the view and the atmosphere of the highland. Each room is very spacious, with a king-sized bed and its own bathroom. There's also a mini mart within a walking distance.The guard on duty is very helpful as well, every time I phone them to get help with something, they came immediately. The villa really accommodated our need for stay-cation, and the establishment is family-friendly as well. Me and my friends really enjoyed our stay, and we will definitely come back here for our next stay in Bandung.",6 BR Hill View Villa with a private pool 3,0,0,0,0,0,0,0,1,VILLAS,8.6,0,0,1,0,Impressive,12,5,"Jalan Dago Pakar Permai II No.53C Resort Dago Pakar , Dago Atas, Bandung, Jawa Barat, Indonesia, 40198",-6.8660319,107.635536,Taman Hutan Raya Juanda,,,
2134,341956,Adrian H.,6,31-Jan-22,"The hotel is clean, the food is delicious, the location is strategic. Just before I checked out there was an incident that made me and my family very, very disappointed because of the officers/staff who dared to open the room door before there were instructions for checking out from the front office/receptionist. So, the story is that I was in installments to put our suitcases and belongings into the car, my wife and child were in a room with a locked door, suddenly a hotel clerk/staff opened the room door with the excuse that he saw that I was carrying my suitcase to the car even though at that time I had not asked the receptionist to check out.",Creative Restart Hotel (CARTEL) by Damn I Love Indonesia,0,0,0,1,0,0,0,0,HOTELS,8.3,0,0,1,0,Impressive,24,5,"Jl. Ir. H. Juanda No.92, Desa Ciburial, Kec. Cimenyan, Dago Atas, Bandung, Jawa Barat, Indonesia, 40135",-6.8648568,107.626441,Taman Hutan Raya Juanda,,,
1403,342804,Dian A.,8.4,31-Aug-21,,Miracle D'GYP Signature,0,0,0,0,0,0,0,1,VILLAS,7.8,0,1,0,0,Convenient,75,4,"Kampung Ciater RT.01 RW 01 Desa Ciater,Kec.Ciater Kab.Subang - Jawa Barat, Lembang, Ciater, Bandung, Indonesia, 41217",-6.7471523,107.6392892,Kawah Putih,,,
939,361944,Afina,9.7,15-Jun-21,"Very enjoy staying here. Nice service, very attentive to guests, and gorgeous place to take pictures with. Wonderful moments",The Palais Dago Hotel,0,0,0,1,0,0,0,0,HOTELS,8.5,0,0,1,0,Impressive,1447,4,"Jl. Ir. H. Djuanda No. 90 Bandung, Dago, Bandung, Jawa Barat, Indonesia, 40122",-6.8638594,107.6262114,Geological Museum,,,
587,364017,iwan h.,5.8,08-Jan-22,So loud and so much noise came from the bar even during workday night. A place for stay up late hopper.,Hotel Riau Bandung,0,0,1,0,0,0,0,0,GUEST HOUSES,7.9,0,1,0,0,Convenient,970,5,"Jl. RE. Martadinata No. 191, Sumurbandung, Riau Street, Bandung, Jawa Barat, Indonesia, 40114",-6.9115576,107.6279597,Sate Building,,,
875,364792,Sofian F.,9.7,03-Jan-22,,Panen Hotel by Tebu Group,0,0,0,1,0,0,0,0,HOTELS,8.6,0,0,1,0,Impressive,137,5,"LLRE Martadinata St No.100, Citarum, Bandung Wetan, Riau Street, Bandung, Jawa Barat, Indonesia, 40114",-6.9091967,107.6247343,Geological Museum,,,
292,374356,my name i. A.,9.7,14-Nov-21,To be frank I pick the most cheaper hotel because I am a budget friendly person at that time and then I found this hotel and just randomly pick this hotel and unexpectedly turns out this hotel is really good & comfortable. Like I would go to this hotel for the second time because it 's cheap and they have a great room service and I hope they will keep improving in their service and the room and everything but over all I will give it a 5. Thanks!,The Summit Siliwangi Hotel,0,0,0,1,0,0,0,0,HOTELS,8.4,0,0,1,0,Impressive,747,3,"Jl. Seram No.5, Citarum, kec.Bandung Wetan,Kota Bandung, Jawa Barat, Riau Street, Bandung, Jawa Barat, Indonesia, 40105",-6.9077896,107.6127927,Sate Building,,,
335,375403,emmanuel j.,8.5,10-Nov-21,"Modern furniture, marriot standard same as other courtyard, full breakfast, really enjoy stay at couryard as a part of marriot company.",Courtyard by Marriott Bandung Dago,0,0,0,1,0,0,0,0,HOTELS,8.6,0,0,1,0,Impressive,2093,4,"Jalan Ir. H. Juanda No. 33, Dago, Bandung, Jawa Barat, Indonesia, 40106",-6.9041809,107.6103882,Sate Building,,,
25,375799,Novita,9.7,14-Dec-21,,Hotel Bumi Asih Gedung Sate Bandung,0,0,0,1,0,0,0,0,HOTELS,8.5,0,0,1,0,Impressive,1882,4,"Jalan Cilamaya No 1, Riau Street, Bandung, Jawa Barat, Indonesia, 40105",-6.9032993,107.6166768,Sate Building,,,
1356,378551,Realita S. P.,8.5,07-Feb-22,"Super nice to stay here with your family or friends. The rooms, staff, ambience are best. Quiet far from main road, but it is pay off with the views and vibes. Recommended!",Omah Angkul Angkul Pool Villa,0,0,0,0,0,0,0,1,VILLAS,8.4,0,0,1,0,Impressive,128,3,"Jalan Raya Lembang Asri No.110 Lembang, Lembang, Bandung, Jawa Barat, Indonesia, 40263",-6.7947958,107.5996385,Kawah Putih,,,
1994,385433,florastiayu c.,5.1,22-Aug-20,"The worse hotel I've ever stayed. I wonder why agent recommended this hotel in their list. It was like a haunted house. Dirty, the room was completely bad. I wish I never stayed there anymore even its free",Hotel Istana Bandung,0,0,0,1,0,0,0,0,HOTELS,6.5,1,0,0,0,Good,1060,5,"Jalan Lembong No. 44, Braga, Bandung, Jawa Barat, Indonesia, 40110",-6.9178044,107.6121198,"Braga, Asia Afrika",,,
1278,386965,Wynda,5.7,29-Mar-21,The location is too hard to find,Bukit Cikahuripan Resort,1,0,0,0,0,0,0,0,RESORTS,8.7,0,0,1,0,Impressive,1020,4,"Jalan Manoko No. 28, RT. 02 / RW. 08, Desa Cikahuripan, Kampung Cisaroni, Kel. Cikahuripan, Lembang, Lembang, Bandung, Jawa Barat, Indonesia",-6.8049347,107.6090419,Kawah Putih,,,
1298,388037,vany p.,8.5,30-Oct-20,Dirty rooms are not maintained until asked for sweep and mop 2x. There was a gathering event right in the front of the room that dangdutan taut until midnight when my destination to the resort to rest. The next room is noisy and translucent because the front window of the room is not hollow closed.,Cikole Jayagiri Hotel & Resort - Lembang,0,0,0,1,0,0,0,0,HOTELS,8,0,1,0,0,Convenient,236,4,"Jalan Tangkuban Perahu KM.28 No.147, Lembang - Cikole , Lembang, Bandung, Jawa Barat, Indonesia, 40390",-6.7826798,107.6503646,Kawah Putih,,,
1984,388379,Reza P.,5.6,17-Dec-21,Hotel location is too crowded due to around tradisional market place. Like old hotel. Breakfast was not good.,Pasar Baru Square Hotel Bandung,0,0,0,1,0,0,0,0,HOTELS,8.6,0,0,1,0,Impressive,3463,3,"Jl. Otto Iskandar Dinata No.70, Kb. Jeruk, Kec. Andir, Kota Bandung, Jawa Barat 40180",-6.9178719,107.6033253,"Braga, Asia Afrika",,,
1342,388817,Dyan A. P.,10,30-Mar-21,"Spacious, comfortable, safe, clean, quiet, beautiful, friendly service, recommendations for families who want to stay at the villa, then close to tourist objects too. Guaranteed not to disappoint. thank you",Runia Lembang,0,0,0,0,0,0,0,1,VILLAS,8.8,0,0,1,0,Impressive,84,5,"Jalan Kolonel Masturi Km.4 Lembang Asri, Lembang, Bandung, Jawa Barat, Indonesia, 40390",-6.8293023,107.5542432,Kawah Putih,,,
450,389185,Listy D. A.,8.5,18-Oct-21,Recommended for millennial people.,Urban Merdeka Hotel By UHM,0,0,0,1,0,0,0,0,HOTELS,8.1,0,1,0,0,Convenient,111,5,"Jl.Merdeka No.49,Bandung Sumur Bandung,babakan Ciamis, Merdeka, Bandung, Jawa Barat, Indonesia, 40117",-6.9073859,107.6101802,Sate Building,,,
447,389364,Andhika W.,8.5,22-Jan-20,Gerat price and great room. Great location as well,Ariandri Residence Hotel Cilaki,0,0,0,1,0,0,0,0,HOTELS,8.2,0,1,0,0,Convenient,950,5,"Jalan Cilaki No. 31, Riau Street, Bandung, Jawa Barat, Indonesia, 40114",-6.9056724,107.6277978,Sate Building,,,
1507,389385,Joko P.,8.5,08-Jan-22,"t turns out that if you use the treatment application and the reality in the place we are going to, we immediately book at a different location, if you use our application, you cannot choose the view that you want even though there are lots of empty rooms according to the application, but if you go directly in a free place to choose, please explain.",Lembah Sarimas Resort Hotel Ciater,1,0,0,0,0,0,0,0,RESORTS,8.5,0,0,1,0,Impressive,2786,4,"Jl. Raya Ciater, Palasari, Ciater, Kabupaten Subang, , Lembang, Ciater, Bandung, Indonesia, 41280",-6.7267606,107.6556074,Kawah Putih,,,
1085,391035,FONG L. M.,6,30-Dec-20,"Too noisy to sleep, water draining system at shower room need to improve.",MS Hotel Ciwidey,0,0,0,1,0,0,0,0,HOTELS,7.9,0,1,0,0,Convenient,379,4,"Jalan Ciwidey - Rancabali Km. 8 Ciwidey Bandung, Ciwidey, Bandung, Jawa Barat, Indonesia, 40972",-7.1181185,107.434938,Kawah Putih,,,
1310,391549,Jamilah J.,9.4,30-Mar-22,"I don't want to go home when I'm there. 2 days not satisfied. Want longer. Very cold. Next will be there again. For advice, the back direction to the bathroom is given a roof so if it rains to the bathroom it doesn't rain.",DGYP 5 Ciater,0,0,0,0,0,0,0,1,VILLAS,7.5,0,1,0,0,Convenient,45,5,"Parkir Barat Wisata Sari Ater, Ciater, Jawa Barat, Lembang, Ciater, Bandung, Indonesia, 41279",-6.7398681,107.6532326,Kawah Putih,,,
439,392153,Julius K.,6,20-Nov-21,"All the rooms are smoking room. I was really disappointed, because before purchasing this hotel, it stated that there was some non smoking room. When I entered the room, not only very strong smoking smell, but also the bed was so dirty and the toilet also was so dirty. I have not stayed at very bad hotel like this before. So, I did not stay, and I directly checked out, so I lost some money purchasing this one night stay but I was fine. I will never get back to this hotel. So bad service and facility.",Ariandri Residence Hotel Cilaki,0,0,0,1,0,0,0,0,HOTELS,8.2,0,1,0,0,Convenient,950,2,"Jalan Cilaki No. 31, Riau Street, Bandung, Jawa Barat, Indonesia, 40114",-6.9056724,107.6277978,Sate Building,,,
2388,395062,Theresia A. S.,8.8,23-Aug-20,good choice for a quick traveller. facilities & comfort worth the price. but no bottle water in the room and sometimes smells smoke even it is non smoking room. parking area is under construction so it is a little dirty.,Wirton Hotel,0,0,0,1,0,0,0,0,HOTELS,8.2,0,1,0,0,Convenient,3720,5,"JL. Ir. H. Djuanda, No. 395, Dago Atas, Bandung, Jawa Barat, Indonesia, 40134",-6.8692365,107.6201911,Taman Hutan Raya Juanda,,,
789,405099,Shaskia,8.4,05-Jul-19,"It was great, the price is okay compared with that we get. The room has refrigerator and water heater, the shower works well. Ac also great but the remote doesn't work well because the battery is low. Also the room is not really clean, having a bit dusty feeling and if you pay attention to some floor in corner of the room under curtain it's a bit unclean. Also witnessing some worker smoked while cleaning other room when we checked out.",Hotel Corsica,0,0,1,0,0,0,0,0,GUEST HOUSES,8.5,0,0,1,0,Impressive,1496,5,"Jalan Supratman No.43A, Bandung Wetan , Cibeunying, Bandung, Jawa Barat, Indonesia, 40113",-6.9046339,107.6281446,Geological Museum,,,
1681,407529,Frana G.,8.8,07-Jan-20,"Very nice place to stay with family/friend(s). Near Alun-alun lembang so basically it's a strategic place and not so far from the main street. I've got room no.5, and unfortunately the wifi signal couldn't reach my room.",Villa de Rossa,0,0,0,0,0,0,0,1,VILLAS,8.6,0,0,1,0,Impressive,2930,4,"Jalan Panorama 1 No. 34-36, Lembang, Kayuambon, Lembang, Kabupaten Bandung Barat, Lembang, Bandung, Jawa Barat, Indonesia, 40390",-6.8148527,107.622976,Kawah Putih,,,
208,414862,Johannes A. S.,8.5,25-Dec-21,,Amaroossa Bandung,0,0,0,1,0,0,0,0,HOTELS,8.2,0,1,0,0,Convenient,5369,4,"Jalan Aceh No 71A, Riau Street, Bandung, Jawa Barat, Indonesia, 40105",-6.908499,107.6184802,Sate Building,,,
649,422748,Annisa R.,10,11-Mar-22,"Had a very pleasant stay at Pullman Bandung. Got such great complimentary (Room Upgrade, mini bar, and cakes + snacks) because this was our honeymoon stay. Good job Pullman Bandung team especially. Mba Marina, Feby, Dita from Guest Relations Team and the awesome housekeeping team! Will definitely stay here again __",Pullman Bandung Grand Central,0,0,0,1,0,0,0,0,HOTELS,8.6,0,0,1,0,Impressive,675,5,"Jl Diponegoro No 27, Citarum, Bandung Wetan, Cibeunying, Bandung, Jawa Barat, Indonesia, 40114",-6.9006712,107.6174754,Geological Museum,,,
837,430587,Citra H.,9.6,14-Dec-21,"Everything was good, however breakfast menu selection could be better.",Amaroossa Bandung,0,0,0,1,0,0,0,0,HOTELS,8.2,0,0,1,0,Impressive,5369,4,"Jalan Aceh No 71A, Riau Street, Bandung, Jawa Barat, Indonesia, 40114",-6.908499,107.6184802,Geological Museum,,,
1871,436446,Dewanggi p.,9.4,30-Jul-18,"The place is comfortable, very fitting for families the kitchen equipment is good, so we dont need to bother. Its just like the floor is not cleaned so when we step on his feet so dirty.",Notes from the Mountains,0,0,0,0,0,0,0,1,VILLAS,8.7,0,0,1,0,Impressive,24,5,"Jalan Krisan No.1,RT 03 RW 010, Kavling Stroberi, Terusan Sersan Bajuri, Cihideung, Parongpong, Lembang, Bandung, Jawa Barat, Indonesia, 40558",-6.8122843,107.596327,Kawah Putih,,,
1000,449199,JIMMY I. S.,6,06-Mar-22,"For me and my family the service was not satisfactory, especially when we just arrived there were no officers to help lower the goods into the trolley all by themselves. Even after that our luggage trolley was still outside there was no one to help bring it into the reception area. Maybe this was the first and last for us. The parking area is very narrow. The rooms are quite good even though it was beyond our expectations. Thank you.",Grand Tebu Hotel,0,0,0,1,0,0,0,0,HOTELS,8.5,0,0,1,0,Impressive,7431,3,"Jalan L.L.R.E Martadinata (Riau) No. 207, Riau Street, Bandung, Jawa Barat, Indonesia, 40114",-6.9128792,107.6296937,Geological Museum,,,
418,454009,yani t. a.,9.4,20-Feb-22,"This is above an average for budget hotel. What I love is they have a good air circulation (balcony door can be opened to get some fresh air). Though the furniture may be some old and stain with smoke burn but overall room was clean. Compared to budget hotel with same price, this hotel is excellent. Wifi works well, naerby to city centre and only few steps to get a good coffee. Minus = I don't see amenities like electrical teapot with coffee and tea in my room.",Tibera Taman Cibeunying,0,0,0,1,0,0,0,0,HOTELS,8.7,0,0,1,0,Impressive,2617,5,"Jalan Taman Cibeunying Selatan No.7, Bandung Wetan, Riau Street, Bandung, Jawa Barat, Indonesia, 40104",-6.9081216,107.6261752,Sate Building,,,
261,454289,Akbari S.,5.4,26-Dec-21,"The room doesn't match the photo of the basic dusty floor cupboard, it's really bad.",OYO 90479 The Ethnic Hotel Bandung (all Suites),0,0,0,1,0,0,0,0,HOTELS,7.2,0,1,0,0,Convenient,35,4,"Stadion Siliwangi, Jalan Lombok, Citarum, Jawa Barat, 40113, Indonesia, Bandung, Sumurbandung, Bandung, Jawa Barat, Indonesia, 40103",-6.91056,107.6186236,Sate Building,,,
2193,458630,Akmad A.,10,31-Jan-22,,Dago Heuvel Resort and Villa,0,0,0,0,0,0,0,1,VILLAS,8.4,0,0,1,0,Impressive,492,4,"Jl.Ciburial Indah No.45, Dago Pakar, Bandung, Dago, Bandung, Jawa Barat, Indonesia, 40188",-6.8599688,107.642993,Taman Hutan Raya Juanda,,,
767,460867,philip i.,8.5,30-Jan-19,Good for family. Nice environment.,De'Qur Hotel Bandung,0,0,0,1,0,0,0,0,HOTELS,7.6,0,1,0,0,Convenient,866,5,"Jalan Dipatiukur No.27, Bandung, Dago, Bandung, Jawa Barat, Indonesia, 40122",-6.8955135,107.6163928,Geological Museum,,,
519,461473,Firli F.,9.7,07-Dec-21,"Very happy, it's strategic to be able to go to the mall, there is an Indomaret under the aprtm, KFC in front of it.",La Grande Apartment By Handoko,0,1,0,0,0,0,0,0,APARTMENTS,8.2,0,0,1,0,Impressive,36,5,"Jl. Merdeka No.25-29, Ciamis, Kec. Sumur Bandung, Kota Bandung, Jawa Barat 40117",-6.9092345,107.6103071,Sate Building,,,
2173,462214,Chandrika N. D.,9.1,04-Apr-21,,Accordia Dago Hotel,0,0,0,1,0,0,0,0,HOTELS,8.4,0,0,1,0,Impressive,2231,5,"Dago Golf Raya 49, Dago Atas, Bandung, Jawa Barat, Indonesia, 40124",-6.8658619,107.6258052,Taman Hutan Raya Juanda,,,
960,468917,Sutiana,8.5,01-Oct-19,,New B Hotel Bandung,0,0,0,1,0,0,0,0,HOTELS,7.5,0,1,0,0,Convenient,967,5,"Jalan Wr. Supratman No. 23 Cihapit Bandung Wetan Kota Bandung, Riau Street, Bandung, Jawa Barat, Indonesia, 40112",-6.9065359,107.6294163,Geological Museum,,,
959,469475,Faris S.,8.8,21-Oct-19,Strategic location and have easy access to Gasibu,New B Hotel Bandung,0,0,0,1,0,0,0,0,HOTELS,7.5,0,1,0,0,Convenient,967,4,"Jalan Wr. Supratman No. 23 Cihapit Bandung Wetan Kota Bandung, Riau Street, Bandung, Jawa Barat, Indonesia, 40112",-6.9065359,107.6294163,Geological Museum,,,
985,469775,ROSALINDA R.,8.5,20-Mar-22,"I will be staying here again. Strategic location, friendly hotel staff, comfortable room. Keep tje good job.",Best Western Premier La Grande Hotel,0,0,0,1,0,0,0,0,HOTELS,8.6,0,0,1,0,Impressive,8989,4,"Jalan Merdeka No. 25 - 29 , Merdeka, Bandung, Jawa Barat, Indonesia, 40117",-6.9092345,107.6103071,Geological Museum,,,
1691,473068,Muhammad A.,8.5,27-Oct-21,,RumaTerra B & B,0,0,0,1,0,0,0,0,HOTELS,8.1,0,1,0,0,Convenient,614,5,"Jl Tangkuban Perahu No 22 Lembang, Kabupaten Bandung Barat, Jawa Barat, Indonesia, Lembang, Bandung, Jawa Barat, Indonesia, 40390",-6.8134369,107.623428,Kawah Putih,,,
375,475087,Fariz A.,9.7,23-Jan-22,Clean and comfortable feels like home. The staff is very friendly. The facilities are also okay.,Rumah Tamu Muararajeun,0,0,1,0,0,0,0,0,GUEST HOUSES,9.4,0,0,0,1,Superb,20,4,"Jalan Muararajeun 24, Kel Cihaurgeulis Kec Cibeunying kaler Bandung Jawa barat, Cibeunying, Bandung, Jawa Barat, Indonesia, 40112",-6.9022422,107.6281215,Sate Building,,,
2122,475720,Nufani,6,22-Jan-22,There are so many rules that haven't been entered yet. The view is okay. But at night the lights often go out. And a lot of lizard t*i fell.,Mandevilla,0,0,0,0,0,0,0,1,VILLAS,8.4,0,0,1,0,Impressive,7,4,"Dago Giri 168, Kabupaten Bandung Barat-Jawa Barat, Dago Atas, Bandung, Jawa Barat, Indonesia, 40158",-6.8482536,107.6267538,Taman Hutan Raya Juanda,,,
714,481999,Mila K.,8.5,08-Nov-21,"I had wonderful moment , consists of good service, nice people, clean room, delicious breakfast.... All in one place!! Thankyou!! Can't wait to stay there next time…",Mitra Hotel Bandung,0,0,0,1,0,0,0,0,HOTELS,8.5,0,0,1,0,Impressive,5306,5,"Jalan W.R. Supratman No. 98, Cibeunying, Bandung, Jawa Barat, Indonesia, 40122",-6.9019507,107.6273712,Geological Museum,,,
242,487783,ht bintoro,9.7,21-Dec-21,,The Luxton Bandung,0,0,0,1,0,0,0,0,HOTELS,8.5,0,0,1,0,Impressive,5030,4,"Jalan Ir. H. Juanda No. 18, Citarum , Dago, Bandung, Jawa Barat, Indonesia, 40105",-6.9038207,107.6114055,Sate Building,,,
426,507203,Rissa R.,8.5,08-Jan-21,,Tibera Taman Cibeunying,0,0,0,1,0,0,0,0,HOTELS,8.7,0,0,1,0,Impressive,2617,5,"Jalan Taman Cibeunying Selatan No.7, Bandung Wetan, Riau Street, Bandung, Jawa Barat, Indonesia, 40104",-6.9081216,107.6261752,Sate Building,,,
277,509299,Ning B.,8.5,14-Nov-20,,The Palais Dago Hotel,0,0,0,1,0,0,0,0,HOTELS,8.5,0,0,1,0,Impressive,1447,4,"Jl. Ir. H. Djuanda No. 90 Bandung, Dago, Bandung, Jawa Barat, Indonesia, 40122",-6.8638594,107.6262114,Sate Building,,,
1725,523749,Eko R.,8.5,19-Sep-21,,Villa panorama 23,0,0,0,0,0,0,0,1,VILLAS,8.5,0,0,1,0,Impressive,10,4,"Jl. Raya Tangkuban Perahu Komplek Panorama Indah No. 23 B Kec. Lembang Kab. Bandung Barat, Lembang, Bandung, Jawa Barat, Indonesia, 40390",-6.8145434,107.6229532,Kawah Putih,,,
1585,529790,Shafira K.,8.5,31-Aug-19,just spent 85.000 you got a perfect room!__,OYO 677 Rianes Family Guest House,0,0,0,1,0,0,0,0,HOTELS,8.3,0,0,1,0,Impressive,146,4,"Jl. Cilumber No.34, Cibogo, Lembang, Kabupaten Bandung Barat, Jawa Barat 40391, Lembang, Bandung, Jawa Barat, Indonesia, 40390",-6.806983,107.639426,Kawah Putih,,,
2354,530395,Wiska y.,9.7,16-Aug-20,Very comfortable all the villa rooms make it really cool and calm.,1 BR Mountain View Villa with a private pool 1,0,0,0,1,0,0,0,0,HOTELS,9,0,0,1,0,Impressive,30,4,"Jalan Bukit Cemara Elok No. 8, Resor Dago Pakar, Dago, Bandung, Jawa Barat, Indonesia, 40134",-6.8618995,107.6509429,Taman Hutan Raya Juanda,,,
2355,530448,Eko S.,9.7,17-Jul-20,"Cleanliness, great comfort, facilities can also be complete, but if there is a pool table and karaoke, the PSTI is even more solid ... really, next time I will definitely come here again ...",0 BR Mountain View Villa with a private pool 1,0,0,0,1,0,0,0,0,HOTELS,9,0,0,1,0,Impressive,30,3,"Jalan Bukit Cemara Elok No. 8, Resor Dago Pakar, Dago, Bandung, Jawa Barat, Indonesia, 40134",-6.8675325,107.6352826,Taman Hutan Raya Juanda,,,
1156,547251,Dedeh R. F.,6.2,25-Mar-21,"It is a pity that the villa is poorly maintained, lots of flies and cobwebs in the bathroom. Poor parking arrangement, it's difficult to get in and out of the car .",De Bloem Lake View,1,0,0,0,0,0,0,0,RESORTS,8.1,0,0,1,0,Impressive,43,4,"Jl. Situ Cileunca, Pangalengan Kab. Bandung – Indonesia, Pangalengan, Bandung, Jawa Barat, Indonesia, 40377",-7.185445,107.5577528,Kawah Putih,,,
1623,555200,Aulia D.,8.5,13-Feb-21,,Hotel Alpha Classica,0,0,0,1,0,0,0,0,HOTELS,8.7,0,0,1,0,Impressive,1322,4,"Jalan Tangkuban Perahu No.25, Lembang, Lembang, Bandung, Jawa Barat, Indonesia",-6.8111488,107.6241098,Kawah Putih,,,
1535,562236,Karina N. H.,8.5,15-Feb-19,"The room was spacious, fully equipped, and clean. Despite the fact that they don't provide buffet menu for breakfast on weekdays, the breakfast menu was delicious! We know now where to stay in Cikole!",Sindang Reret Cikole,1,0,0,0,0,0,0,0,RESORTS,8.3,0,0,1,0,Impressive,305,5,"Jalan Raya Cikole KM 22, Lembang, Lembang, Bandung, Jawa Barat, Indonesia",-6.788926,107.641402,Kawah Putih,,,
1031,564170,egi w.,8.5,14-Oct-19,"The place is comfortable, strategic location close to tourist attractions, the facilities are okay, the bathroom has warm water. Perfect for the fir family.",ALI1 Pondok Orange 1 Ciwidey,0,0,0,0,0,1,0,0,HOMESTAYS,8.8,0,0,1,0,Impressive,85,5,"Kampung Cimanggu RT/RW 01 Desa Patengan, ranca bali Bandung, Ciwidey, Bandung, Jawa Barat, Indonesia, -",-7.1444662,107.3915287,Kawah Putih,,,
646,572538,Fanni,9.7,16-Feb-22,,ibis Styles Bandung Grand Central,0,0,0,1,0,0,0,0,HOTELS,8.7,0,0,1,0,Impressive,1513,5,"Jl Diponegoro No 27, Citarum, Bandung Wetan, Cibeunying, Bandung, Jawa Barat, Indonesia, 40114",-6.9006712,107.6174754,Geological Museum,,,
1014,573374,Nopta K. Y.,8.5,29-Mar-21,"the place is clean, nice adeuummmm, only minus the hot water for bathing __",ALI2 Pondok Orange 1,0,0,0,0,0,1,0,0,HOMESTAYS,8.9,0,0,1,0,Impressive,36,2,"Kampung Cimanggu RT/RW 01 Desa Patengan, ranca bali Bandung , Ciwidey, Bandung, Jawa Barat, Indonesia, -",-7.1444662,107.3915287,Kawah Putih,,,
1723,574475,Siau L.,10,24-Oct-17,"Good nice service, cozy place",Villa Istana Bunga - Rotensia,0,0,0,0,0,0,0,1,VILLAS,8.1,0,0,1,0,Impressive,4,3,"Jalan Kolonel Masturi km 9, Parompong Cisarua ( Komplek Rotensia Villa Istana Bunga), Parongpong, Bandung, Jawa Barat, Indonesia, 40558",-6.8293023,107.5542432,Kawah Putih,,,
1478,587159,Beatrix J.,6.1,05-Nov-21,"The staff is friendly, parking is ok, but the signpost is not big enough & it's blurry so the inn is a bit hard to find. Towels are also lacking. Did you know in the booking that there were 2 guests, but only 1 towels were given. Then another drawback is that there is no fan. For that price, there should at least be a fan.",OYO 2141 Pondok Pulo Sari 0,0,0,0,1,0,0,0,0,HOTELS,8,0,1,0,0,Convenient,68,5,"Jl. Sari Alam,41281,Subang,West Java, Lembang, Ciater, Bandung, Indonesia, 41280",-6.7392093,107.6589944,Kawah Putih,,,
2441,594569,Yovan H.,9.1,14-Mar-22,,Clove Garden Hotel & Residence,0,0,0,1,0,0,0,0,HOTELS,8.3,0,0,1,0,Impressive,14487,5,"Jl. Awiligar Raya Dago Pakar II Bandung Jawa Barat 40191, Dago, Bandung, Jawa Barat, Indonesia, 40190",-6.8746722,107.64137,Taman Hutan Raya Juanda,,,
1111,594724,Firmansyah,8.5,05-May-19,,Sindang Reret Hotel Ciwidey,0,0,0,1,0,0,0,0,HOTELS,8.2,0,1,0,0,Convenient,329,4,"Jalan Raya Ciwidey Km 25 Pasir Jambu, Ciwidey, Bandung, Jawa Barat, Indonesia",-7.0833631,107.4827902,Kawah Putih,,,
1524,594744,Dhe H.,9.1,24-Jun-19,"I got a less fortunate room, rooms 313 & 314, room 313 the TV has no picture only the sound, the toilet smells & there is no toilet tissue, the floor of the room is a bit dirty (Like a room that is rarely used. And for Room 314 the room door slot there is no shower, so it cannot be locked. Oh yes, for the 2nd room door, it is very difficult to lock, so you leave the room with the room unlocked.",Sindang Reret Cikole,1,0,0,0,0,0,0,0,RESORTS,8.3,0,0,1,0,Impressive,305,4,"Jalan Raya Cikole KM 22, Lembang, Lembang, Bandung, Jawa Barat, Indonesia",-6.788926,107.641402,Kawah Putih,,,
2505,601018,Utari C. L.,10,04-Apr-22,We had a pleasant stay at Sheraton Bandung. The staffs are friendly. The breakfasts are great! Definitely would recommend to my family and friends to stay here.,Sheraton Bandung Hotel & Towers,0,0,0,1,0,0,0,0,HOTELS,8.7,0,0,1,0,Impressive,2102,4,"Jalan Ir. H. Juanda No 390, Dago Atas, Bandung, Jawa Barat, Indonesia, 40134",-6.8743077,107.6200061,Taman Hutan Raya Juanda,,,
1591,609319,Rizca n. s.,9.7,10-Jun-21,,Syariah Runia Villa,0,0,0,0,0,0,0,1,VILLAS,9,0,0,1,0,Impressive,18,4,"jl kolonel masturi km4,lembang asri ,nagrak tengah, Lembang, Bandung, Jawa Barat, Indonesia, 40390",-6.7992762,107.5975954,Kawah Putih,,,
1971,611893,Indra s.,5.1,04-Mar-22,"Room was dirty and a lot of defect. Linen and towel spot, not recomended.",The Naripan Hotel by KAGUM Hotels,0,0,0,1,0,0,0,0,HOTELS,8.1,0,1,0,0,Convenient,3094,4,"Jln Naripan 31 - 35 Bandung, Braga, Bandung, Jawa Barat, Indonesia, 40110",-6.9196914,107.6118217,"Braga, Asia Afrika",,,
137,617242,nur a.,10,10-Oct-21,"I like the minimalis design of the room. At first I had complaint about the bathroom smell. But good that the officer quickly responded to my complaint. And I even love the smell of the room, smell of clean with a bit of alcohol/flowery/musk fragrance.",Citarum Hotel,0,0,0,1,0,0,0,0,HOTELS,8.6,0,0,1,0,Impressive,1737,5,"Jalan Citarum No. 16, Riau Street, Bandung, Jawa Barat, Indonesia",-6.9044631,107.6231043,Sate Building,,,
1659,619010,Dadan I.,5.8,08-Dec-20,Staf is friendly but hotel clenlynes is bad,Saung Balibu Hotel,0,0,0,1,0,0,0,0,HOTELS,8.5,0,0,1,0,Impressive,1190,5,"Jalan Tangkuban Perahu No. 168 Cibogo - Cikole Lembang - Bandung, Lembang, Bandung, Jawa Barat, Indonesia, 40390",-6.8091287,107.6464558,Kawah Putih,,,
324,624672,Andika S. N.,6.1,06-Nov-21,I'm very disappointed because of my ordered is deluxe queen but in fact I have got twin bed that modified like queen bed (1 bed) and there is not information to me before. I realized when I woke up in the morning. Breakfast has not variety,Hotel Santika Bandung,0,0,0,1,0,0,0,0,HOTELS,8.5,0,0,1,0,Impressive,2546,4,"Jl Sumatera 52-54 , Merdeka, Bandung, Jawa Barat, Indonesia, 40105",-6.9085377,107.6118816,Sate Building,,,
1674,634906,Salsabila N. F.,8.5,03-Nov-21,,Villa de Rossa,0,0,0,0,0,0,0,1,VILLAS,8.6,0,0,1,0,Impressive,2930,5,"Jalan Panorama 1 No. 34-36, Lembang, Kayuambon, Lembang, Kabupaten Bandung Barat, Lembang, Bandung, Jawa Barat, Indonesia, 40390",-6.8148527,107.622976,Kawah Putih,,,
146,661917,Restu P. N.,8.5,16-Feb-22,,Ivory Hotel Bandung,0,0,0,1,0,0,0,0,HOTELS,8.8,0,0,1,0,Impressive,4235,3,"Jl.Bahureksa no 3 Bandung , Riau Street, Bandung, Jawa Barat, Indonesia, 40105",-6.9049747,107.6139818,Sate Building,,,
1566,670682,Stefvina W.,9.4,01-Mar-19,,Hotel & Banquet Panorama Lembang,0,0,0,1,0,0,0,0,HOTELS,8.3,0,0,1,0,Impressive,330,4,"Jalan Tangkuban Perahu No 29, Lembang, Bandung, Jawa Barat, Indonesia, 40390",-6.8105882,107.6244453,Kawah Putih,,,
1161,679709,Yazid A. S.,8.5,10-Dec-21,"Perfect place, near the lake. Easy to find.",OYO 2961 ARTANA BED & BREAKFAST,0,0,0,0,0,1,0,0,HOMESTAYS,7.4,0,1,0,0,Convenient,51,4,"Jl. Raya Situ Cileunca Rt.04 Rw.09 Kampung Cibeunying, Desa, Warnasari, Kec. Pangalengan, Bandung, Kabupaten Bandung, Pangalengan, Bandung, Jawa Barat, Indonesia, 40377",-7.1939176,107.5455582,Kawah Putih,,,
1114,698606,Rezita D. A.,9.7,08-Jul-18,"Good stay at M Premiere. The room was very clean and I got hairdryer, LoL. Unfortunately the main lamp was broken. The food were good, I love the snapper!",Sindang Reret Hotel Ciwidey,0,0,0,1,0,0,0,0,HOTELS,8.2,0,1,0,0,Convenient,329,4,"Jalan Raya Ciwidey Km 25 Pasir Jambu, Ciwidey, Bandung, Jawa Barat, Indonesia",-7.0833631,107.4827902,Kawah Putih,,,
1890,701057,Toni M.,9.7,25-Aug-21,Wonderfull,Emaki Almasoem Resort,1,0,0,0,0,0,0,0,RESORTS,8.4,0,0,1,0,Impressive,74,4,"jl. Suka senang, Desa Cibogo, Kecamatan Lembang Kabupaten Bandung Barat , Lembang, Bandung, Jawa Barat, Indonesia, 40390",-6.8147253,107.6355559,Kawah Putih,,,
402,709990,Dinniar F.,8.5,01-Feb-22,"Nice room, great services. So far was good.",THE 1O1 Bandung Dago,0,0,0,1,0,0,0,0,HOTELS,8.6,0,0,1,0,Impressive,12255,5,"Jl. Ir H. Juanda No. 3 , Dago, Bandung, Jawa Barat, Indonesia, 40105",-6.8629693,107.6236014,Sate Building,,,
2102,713475,herlina h.,9.7,10-Dec-17,"The villa is clean and huge, full kitchen equipment.",6 BR Hill View Villa with a private pool 1,0,0,0,0,0,0,0,1,VILLAS,8.9,0,0,1,0,Impressive,30,5,"Jalan Dago Pakar Permai 2 No. 53E, Resor Dago Pakar, Dago Atas, Bandung, Jawa Barat, Indonesia",-6.8660978,107.6358543,Taman Hutan Raya Juanda,,,
2585,713741,agustiana,8.5,08-Apr-21,,Concordia Hotel Bandung,0,0,0,1,0,0,0,0,HOTELS,8.4,0,0,1,0,Impressive,408,5,"Jalan Rancabentang No 2 Ciumbuleuit - Cidadap, Ciumbuleuit, Bandung, Jawa Barat, Indonesia, 40141",-6.8710311,107.6091051,Taman Hutan Raya Juanda,,,
2586,713758,heni s.,8.5,03-Mar-21,,Concordia Hotel Bandung,0,0,0,1,0,0,0,0,HOTELS,8.4,0,0,1,0,Impressive,408,5,"Jalan Rancabentang No 2 Ciumbuleuit - Cidadap, Ciumbuleuit, Bandung, Jawa Barat, Indonesia, 40141",-6.8710311,107.6091051,Taman Hutan Raya Juanda,,,
2528,713777,Dian H.,8.4,06-Nov-19,,Rumah Syariah & Kolam Renang Bugenville Guesthouse,0,0,0,0,0,1,0,0,HOMESTAYS,8.5,0,0,1,0,Impressive,475,5,"Jln. Awiligar Raya no. 246 Rt 03 Rw 11, Dago, Bandung, Jawa Barat, Indonesia, 40190",-6.8762365,107.6176658,Taman Hutan Raya Juanda,,,
2187,722152,Dina A.,9.7,29-Mar-22,,Dago Heuvel Resort and Villa,0,0,0,0,0,0,0,1,VILLAS,8.4,0,0,1,0,Impressive,492,5,"Jl.Ciburial Indah No.45, Dago Pakar, Bandung, Dago, Bandung, Jawa Barat, Indonesia, 40188",-6.8599688,107.642993,Taman Hutan Raya Juanda,,,
1719,731022,Evin Y.,6,15-Nov-21,"(-) There is no hot shower. Bed damp and lots of stains. The bathroom seemed dirty and worn to the point of yellowing. Good to replace. The room looks dirty, worn and old, when I'm alone. Wouldn't dare, it's a lot of luck. (+) The staff and guard are good and on standby. The glass doors and windows are wide, I like it. There is a play ground for children. Hot water dispenser is provided. Parking is quite spacious. Right beside the hotel there is an eating house and souvenir center. Early in the morning there were horses and sellers of berries.",Villa Enggal Lembang,0,0,0,0,0,0,0,1,VILLAS,8.3,0,0,1,0,Impressive,238,4,"Jalan. Tangkuban Perahu No. 140 - 142, Lembang, Lembang, Bandung, Jawa Barat, Indonesia",-6.8093178,107.6460202,Kawah Putih,,,
2,735298,Rizal P.,9.4,28-Mar-22,"First time stays at this really central located hotel, we booked the Deluxe City View and asked for the high floor to have a better view, it was really a stunning view from the balcony and window. They gave us the room no 1032, its headed to East (just in front of the Gasibu park) and the side window is headed to North (Dago and Mt Tangkuban Perahu view). The room size is just perfect with large modern IPTV and other facilities but the bathroom size is really small (1x1,5) for a 5* hotel, even the 4* hotel have much bigger bathroom. The other issues is the sound proof is really bad, the noise from the busy street and Gasibu park below is clearly heard in the room and its really dissapointing for a 5* hotel. The parking lots is huge, I guess its the biggest basement parking lot for a hotel in Bandung, maybe its because of next to the hotel is a convention center and they shared the same parking lot, and maybe if there's an event at the convention center then parking will be an issue. Anyway, overall its a pleasent stay at the hotel, and really recommended hotel for leissure or business.",Pullman Bandung Grand Central,0,0,0,1,0,0,0,0,HOTELS,8.6,0,0,1,0,Impressive,675,3,"Jl Diponegoro No 27, Citarum, Bandung Wetan, Cibeunying, Bandung, Jawa Barat, Indonesia",-6.9006712,107.6174754,Sate Building,,,
548,740645,Yoyo I.,8.5,06-Jan-20,Nice clean hotel. Room comfortable.,Geulis Boutique Hotel & Cafe,0,0,0,1,0,0,0,0,HOTELS,8.9,0,0,1,0,Impressive,624,5,"Jalan Ir. Haji Juanda No.129, Dago, Dago, Bandung, Jawa Barat, Indonesia, 40122",-6.8912262,107.6127002,Sate Building,,,
2101,742149,Febby S.,8.5,16-Dec-18,"I booked this villa for a family vacation. The villas are very comfortable to the point that one day feels less, very homey, good view.",6 BR Hill View Villa with a private pool 1,0,0,0,0,0,0,0,1,VILLAS,8.9,0,0,1,0,Impressive,30,5,"Jalan Dago Pakar Permai 2 No. 53E, Resor Dago Pakar, Dago Atas, Bandung, Jawa Barat, Indonesia",-6.8660978,107.6358543,Taman Hutan Raya Juanda,,,
1803,743918,Dimas D. A.,9.1,17-Aug-21,"Great place for the price: spacious, comfy, yet in a walkable distance to city center. Some spot is still under construction while we're here. Don't know why there is no front office, so we're checking in outside. Not a great checking-in experience, but the staff is pretty nice.",Grand Hotel Lembang,0,0,0,1,0,0,0,0,HOTELS,7.8,0,1,0,0,Convenient,2816,4,"Jl. Raya Lembang No. 272, Lembang, Bandung, Jawa Barat, Indonesia, 40390",-6.811868,107.616338,Kawah Putih,,,
2274,750364,IIN E. P.,9.7,15-Mar-20,"Recommended, New building, New concept Good location Good view",Villa Verna AV4 Dago Village,0,0,0,0,0,0,0,1,VILLAS,8,0,1,0,0,Convenient,14,4,"Jalan Lebak Siuh Dago Pakar Timur Ciburial Bandung, Dago, Bandung, Jawa Barat, Indonesia, 40197",-6.8650382,107.6230564,Taman Hutan Raya Juanda,,,
166,754867,Siti m.,9.1,04-Jan-22,,Bobobox Dago,0,0,0,0,1,0,0,0,CAPSULE HOTEL,8.7,0,0,1,0,Impressive,815,5,"Jalan Sultan Tirtayasa No.11, Citarum, Bandung, Dago, Bandung, Jawa Barat, Indonesia, 40105",-6.9024743,107.6129776,Sate Building,,,
873,767270,Anty,8.5,02-Feb-22,,Panen Hotel by Tebu Group,0,0,0,1,0,0,0,0,HOTELS,8.6,0,0,1,0,Impressive,137,5,"LLRE Martadinata St No.100, Citarum, Bandung Wetan, Riau Street, Bandung, Jawa Barat, Indonesia, 40114",-6.9091967,107.6247343,Geological Museum,,,
108,782346,Lestari,9.4,03-Jan-22,"Very very strategic location, clean room, and good vibes!",Tebu Hotel Bandung,0,0,0,1,0,0,0,0,HOTELS,8.5,0,0,1,0,Impressive,7303,4,"JL. L.L.R.E Martadinata No.62, Riau, Riau Street, Bandung, Jawa Barat, Indonesia, 40105",-6.9063202,107.6202605,Sate Building,,,
1701,790289,ROHMAD N. A.,8.5,28-Jan-22,,Pesona Bamboe Lembang,0,0,0,1,0,0,0,0,HOTELS,8.6,0,0,1,0,Impressive,5060,5,"Jl Raya Lembang 227, Lembang, Bandung, Jawa Barat, Indonesia, 40390",-6.8122314,107.6158244,Kawah Putih,,,
2371,792091,Andi F.,6.6,27-Sep-16,Passable. For her caretaker villa slow response and unfriendly,Villa Kencana Syariah - 5 Bedroom,0,0,0,0,0,0,0,1,VILLAS,7.9,0,1,0,0,Convenient,7,4,"Jl. Bukit Kencana no. 39, Resort Dago Pakar, Dago, Bandung, Jawa Barat, Indonesia, 41090",-6.8675325,107.6352826,Taman Hutan Raya Juanda,,,
2370,792092,evi,9.7,14-Aug-17,The villa is clean and well maintained. The villa is big enough 3 floors. There were 2 rooms with double queen beds and 2 queen beds + 1 driver room. There is a verandah as well and a lawn can make a picnic.,Villa Kencana Syariah - 5 Bedroom,0,0,0,0,0,0,0,1,VILLAS,7.9,0,1,0,0,Convenient,7,5,"Jl. Bukit Kencana no. 39, Resort Dago Pakar, Dago, Bandung, Jawa Barat, Indonesia, 41090",-6.8675325,107.6352826,Taman Hutan Raya Juanda,,,
2303,810126,Resti d. h.,9.7,05-Jul-20,"A fun vacation spot with family (bring elderly and toddlers). The atmosphere is calm and refreshing. The location is not difficult to find snacks / breakfast. The inn is well groomed with a nice and friendly owner, even allowing us to enter before check-in time, cleanliness is maintained, complete kitchen equipment, smooth hot water, smooth WiFi. Highly recommended and definitely will come back another time.",Villa Mawar Syariah - 3 Bedroom,0,0,0,0,0,0,0,1,VILLAS,9.2,1,0,0,0,Superb,20,4,"Jalan Mawar I no. 31, Cluster Graha Kusuma, Resort Dago Pakar, Dago, Bandung, Jawa Barat, Indonesia, 41090",-6.9174639,107.6191228,Taman Hutan Raya Juanda,,,
2301,810314,Oktaria R.,9.7,08-Mar-21,"Very clean here, all kinds are provided. Betahhhhh",Villa Mawar Syariah - 3 Bedroom,0,0,0,0,0,0,0,1,VILLAS,9.2,1,0,0,0,Superb,20,5,"Jalan Mawar I no. 31, Cluster Graha Kusuma, Resort Dago Pakar, Dago, Bandung, Jawa Barat, Indonesia, 41090",-6.9174639,107.6191228,Taman Hutan Raya Juanda,,,
1822,817963,Muhammad A.,9.7,24-Oct-21,"Cheap, complete facilities. But a little less private.",Costay Bajuri House,0,0,1,0,0,0,0,0,GUEST HOUSES,8.8,0,0,1,0,Impressive,35,3,"Jl melati no 18 jl sersan bajuri, cihideung parongpong bandung barat, Lembang, Bandung, Jawa Barat, Indonesia, 40558",-6.8124798,107.59601,Kawah Putih,,,
1885,834616,Yudi Y.,10,05-Dec-21,"Amazing facilities and sercvice, very satisfy. Very recommended hotel",Emaki Almasoem Resort,1,0,0,0,0,0,0,0,RESORTS,8.4,0,0,1,0,Impressive,74,4,"jl. Suka senang, Desa Cibogo, Kecamatan Lembang Kabupaten Bandung Barat , Lembang, Bandung, Jawa Barat, Indonesia, 40390",-6.8147253,107.6355559,Kawah Putih,,,
1847,836442,Anita M.,9.7,02-Jan-20,,Villa Lemon,0,0,0,0,0,0,0,1,VILLAS,8.8,0,0,1,0,Impressive,925,5,"Jalan Holtikultura No.18 , Lembang, Bandung, Jawa Barat, Indonesia, 40390",-6.8164567,107.6103796,Kawah Putih,,,
863,849998,idfi p.,9.4,14-Jan-22,"Superb! Clean, hightech, cheap (under IDR 200k), friendly staff, good facilities: wifi, hot water, water dispenser, microwave, prayer room. Althought there's silence hours (21.00-07.00) still I could hear voices. So, you might need to have ear plugs especially for those you are too sensitive to voices. But, I love the idea of natural sound effect and light setting based on our mood on our capsule. Brilliant. Just, a suggestion for those who have problem with weight and steps, you'd better book the earth type not the sky one. Over all, a great experience and would love to come back.",Bobobox Dago,0,0,0,0,1,0,0,0,CAPSULE HOTEL,8.7,0,0,1,0,Impressive,815,3,"Jalan Sultan Tirtayasa No.11, Citarum, Bandung, Dago, Bandung, Jawa Barat, Indonesia, 40114",-6.9024743,107.6129776,Geological Museum,,,
1804,853818,Susanti M.,8.5,10-Apr-21,,Grand Hotel Lembang,0,0,0,1,0,0,0,0,HOTELS,7.8,0,1,0,0,Convenient,2816,5,"Jl. Raya Lembang No. 272, Lembang, Bandung, Jawa Barat, Indonesia, 40390",-6.811868,107.616338,Kawah Putih,,,
2126,867599,,,,,8 BR Hill View With a Private Pool 1,0,0,0,0,0,0,0,1,VILLAS,0,0,0,0,0,0,0,0,"Jalan Dago Pakar Permai II No.53, Dago Atas, Bandung, Jawa Barat, Indonesia, 40198",-6.8660319,107.635536,Taman Hutan Raya Juanda,,,
543,873354,Sutiana,8.5,01-Oct-19,,New B Hotel Bandung,0,0,0,1,0,0,0,0,HOTELS,7.5,0,1,0,0,Convenient,967,4,"Jl. Supratman No.23, Cihapit, Kec. Bandung Wetan, Kota Bandung, Jawa Barat 40122",-6.9065359,107.6294163,Sate Building,,,
784,878951,Yozua M.,8.8,13-Nov-19,"Nice room, good location, recommend for business trip.",Hotel Corsica,0,0,1,0,0,0,0,0,GUEST HOUSES,8.5,0,0,1,0,Impressive,1496,5,"Jalan Supratman No.43A, Bandung Wetan , Cibeunying, Bandung, Jawa Barat, Indonesia, 40113",-6.9046339,107.6281446,Geological Museum,,,
2080,880100,Ahmad F. Y.,6,26-Oct-19,"The villa is large, suitable for gathering with large families. However, the facilities are lacking, the cleanliness is also lacking, not as good as the photos, and the service is bad.",De Bukit Dago Villa by HouseinBandung,0,0,0,0,0,0,0,1,VILLAS,7.8,0,1,0,0,Convenient,30,4,"Jalan Bukit Pakar Timur IV/D6, Dago Atas, Bandung, Jawa Barat, Indonesia, 40141",-6.8614947,107.6348723,Taman Hutan Raya Juanda,,,
1361,881877,Dwi S. W.,9.4,30-Oct-21,This villa is perfect for family getaways … __.,Omah Angkul Angkul Pool Villa,0,0,0,0,0,0,0,1,VILLAS,8.4,0,0,1,0,Impressive,128,3,"Jalan Raya Lembang Asri No.110 Lembang, Lembang, Bandung, Jawa Barat, Indonesia, 40263",-6.7947958,107.5996385,Kawah Putih,,,
2023,899747,farah d.,9,04-Mar-22,,Grand Dafam Braga Bandung,0,0,0,1,0,0,0,0,HOTELS,8.4,0,0,1,0,Impressive,297,4,"Jl. Braga 99 - 101 Bandung 40111, West Java, Indonesia, Braga, Bandung, Jawa Barat, Indonesia, 40110",-6.9170825,107.6089854,"Braga, Asia Afrika",,,
478,901300,ERBI,8.5,03-Apr-22,,Serela Merdeka by KAGUM Hotels,0,0,0,1,0,0,0,0,HOTELS,8.3,0,0,1,0,Impressive,6006,5,"Jl. Surya Kencana No.11A, Lebakgede, Kecamatan Coblong, Kota Bandung, Jawa Barat 40132",-6.8924813,107.6140643,Sate Building,,,
1418,904835,Melissa M.,10,08-Jun-19,,Gracia Spa,1,0,0,0,0,0,0,0,RESORTS,8.7,0,0,1,0,Impressive,325,1,"Jalan Ciater Blok Dawuan, Ciater Subang, Lembang, Ciater, Bandung, Indonesia, 41280",-6.7296432,107.6540144,Kawah Putih,,,
766,907786,Tree P. N.,8.5,17-Apr-19,"it's an old hotel. quite mystic atmosphere + : check in is easy no mosquito aircon works well hot water works well the staffs are awesome 12.30 check out the breakfast is plenty what can be better: - sign board to let you know where is dequr. because if your not local, even if your local.. there is a garden in front which make it complicated to reach. - could you provide more shampoo or soap, when I was there, it's only 2 little bar of soap. - bottle water small one is enough,rather you put water in the cup. I'm concerned about hygiene. - some chilly in breakfast because quite plain",De'Qur Hotel Bandung,0,0,0,1,0,0,0,0,HOTELS,7.6,0,1,0,0,Convenient,866,3,"Jalan Dipatiukur No.27, Bandung, Dago, Bandung, Jawa Barat, Indonesia, 40122",-6.8955135,107.6163928,Geological Museum,,,
363,924891,Yohanes P. B.,9.7,24-Oct-21,"Clean, nice decoration, great breakfast, friendly staffs! Well done.",Saninten Inn,0,0,0,1,0,0,0,0,HOTELS,9.1,0,0,0,1,Superb,292,4,"Jalan Saninten No 65 Bandung, Riau Street, Bandung, Jawa Barat, Indonesia, 40105",-6.9057647,107.6273261,Sate Building,,,
1177,946758,Mukhlis A.,9.7,06-Jan-21,"A very pleasant and very well run villa. The cleanliness is very good and the facilities are well provided. Mr. Trisno and Mrs. Susi, the villa owners are very friendly and welcome us with pleasant openness. In the villa there are also personnel who can be asked for help at any time, namely Mang Yayat and his very kind wife. Our family is very happy to be at this villa and hope to return to this villa at another time.",Kia Ora Lodge,0,0,0,0,0,0,0,1,VILLAS,9.3,0,0,0,1,Superb,15,4,"Jalan Raya Pangalengan km 31.2, Kampung Cihideung, Desa Tribakti Mulya, Kecamatan Pangalengan, Kabupaten Bandung, Jawa Barat., Pangalengan, Bandung, Jawa Barat, Indonesia, 40377",-7.1361729,107.5575753,Kawah Putih,,,
809,947200,Mpokgaga E.,9.4,24-Feb-20,"Staff was so polite and helpful. Better stay at 3rd floor than 2nd floor, because the wifi was stronger there.",Flores Gallery Hotel,0,0,0,1,0,0,0,0,HOTELS,8.3,0,0,1,0,Impressive,1583,3,"Jalan Flores No. 7, Sumurbandung, Riau Street, Bandung, Jawa Barat, Indonesia, 40114",-6.9080875,107.6179482,Geological Museum,,,
1210,955115,Rinnie I.,8.4,16-Nov-20,Yes according to the standard. but at night there are knocking on the window in the room. Don't know what or who because the room can be the end?,Hotel Antik 2,0,0,0,1,0,0,0,0,HOTELS,7.8,0,1,0,0,Convenient,21,5,"JL. Raya Soreang, Km. 15, 5, Cingcin, Soreang, Cingcin, Kec. Soreang, Bandung, Jawa Barat 40921, Soreang, Bandung, Jawa Barat, Indonesia, 40920",-7.0209192,107.5389238,Kawah Putih,,,
1533,956218,Reni F.,8.5,30-Sep-19,"The location is strategic, the rooms are very private, the service is good and swift, when my mother's asthma recurred in the cold 17°C when it was raining, the receptionist immediately made hot ginger. Thx yes. Indonesian breakfast menu, on time. Fasum is complete. Archery, flying fox, vegetable garden. Recommended for holidays with parents.",Sindang Reret Cikole,1,0,0,0,0,0,0,0,RESORTS,8.3,0,0,1,0,Impressive,305,3,"Jalan Raya Cikole KM 22, Lembang, Lembang, Bandung, Jawa Barat, Indonesia",-6.788926,107.641402,Kawah Putih,,,
1087,959474,Ramot H.,8.5,31-Aug-20,,MS Hotel Ciwidey,0,0,0,1,0,0,0,0,HOTELS,7.9,0,1,0,0,Convenient,379,3,"Jalan Ciwidey - Rancabali Km. 8 Ciwidey Bandung, Ciwidey, Bandung, Jawa Barat, Indonesia, 40972",-7.1181185,107.434938,Kawah Putih,,,
2255,969272,Evy D.,9.1,06-Feb-22,"It's the umpteenth time staying here, the room is spacious with 2 rooms, balcony overlooking the pool, clean room & bathroom conditions, complete eating & cooking utensils, cold air conditioning, pretty good tv broadcasts, limited wifi, bathtub in the main bathroom, hot water yes, very satisfied, only the condition of the hotel is quiet so the jacuzzi and foam pool cannot be used, the rest is fun.",2BR Marbella Suite Apartment,0,1,0,0,0,0,0,0,APARTMENTS,8.9,0,0,1,0,Impressive,60,4,"Jl.Sentra Dago Pakar Raya, Perumahan Dago Resort, Bandung, Dago Atas, Bandung, Jawa Barat, Indonesia, 40198",-6.8675325,107.6352826,Taman Hutan Raya Juanda,,,
868,972205,Harly B. P.,9.7,05-Oct-21,"Clean, facilities (toilet, pantry, etc) are cleaned regularly. Strategic place.",Bobobox Dago,0,0,0,0,1,0,0,0,CAPSULE HOTEL,8.7,0,0,1,0,Impressive,815,4,"Jalan Sultan Tirtayasa No.11, Citarum, Bandung, Dago, Bandung, Jawa Barat, Indonesia, 40114",-6.9024743,107.6129776,Geological Museum,,,
1424,992758,Lie S.,8.5,01-Mar-22,The quality of service provided is very poor. Restaurant staff is chatting with each other but they don't care to serve or clear dirty plates from tables. The food quality is below standard. Club sandwich consists of too much mayonnaise and the pisang goreng is not crispy covered in tons of sugar. More annoying is that they do not have non smoking rooms. So in the non smoking room I requested was an ashtray and smell from previous guest. How is it possible that there are no none smoking rooms?,Sari Ater Hotel,0,0,0,1,0,0,0,0,HOTELS,8.5,0,0,1,0,Impressive,7424,4,"Jl. Raya Ciater - Ciater, Lembang, Ciater, Bandung, Indonesia, 41280",-6.7313756,107.6535055,Kawah Putih,,,
1423,992826,Eman S.,8.5,04-Mar-22,I was offered to upgrade the room with additional IDR 900k as the Landak room looks not good. But unfortunately the bungalow also dissatisfied as the bed is too stiff feels like sleeping on the plywood. The check in process also not too smooth as the staff also not friendly and accommodate any question. Overall its not a place to get relax and resting.,Sari Ater Hotel,0,0,0,1,0,0,0,0,HOTELS,8.5,0,0,1,0,Impressive,7424,4,"Jl. Raya Ciater - Ciater, Lembang, Ciater, Bandung, Indonesia, 41280",-6.7313756,107.6535055,Kawah Putih,,,
1496,992868,Wiwik A.,5.1,14-Dec-21,"We enter the hotel at 23.35 and check out schedule at 12.00. Because it was raining heavily and I had a baby so I waited for the rain to stop because the car park from the room was okay and the baby would get wet. When I checked out at 12.45 I was immediately told to pay more, even though it wasn't even 1 hour past. The staff is not friendly, fierce",OYO 3879 Villa Sari Intan,0,0,0,0,0,0,0,1,VILLAS,7.4,0,1,0,0,Convenient,48,4,"5,Jalan Lembah Sarimas, Ciater,41281,Subang,West Java, Lembang, Ciater, Bandung, Indonesia, 41281",-6.7318678,107.6547741,Kawah Putih,,,
1421,992911,hidayat p.,8.8,13-Mar-22,"The hotel was not so convinient as the view is just like in the city, I can't smell a holiday ambience",Sari Ater Hotel,0,0,0,1,0,0,0,0,HOTELS,8.5,0,0,1,0,Impressive,7424,4,"Jl. Raya Ciater - Ciater, Lembang, Ciater, Bandung, Indonesia, 41280",-6.7313756,107.6535055,Kawah Putih,,,
2112,1002115,Vian S.,9.1,16-Nov-16,This villa is so great. All rooms have the in-room bathroom. But the weather was cold. We weren't able to swim too long. I went there with my big family. They would really like to come back there next time.,4 BR Hill View Villa with a private pool 2,0,0,0,0,0,0,0,1,VILLAS,8.9,0,0,1,0,Impressive,30,4,"Jalan Dago Pakar Permai 2 no D53, Resor Dago Pakar,, Dago Atas, Bandung, Jawa Barat, Indonesia",-6.8691238,107.6354679,Taman Hutan Raya Juanda,,,
2113,1002787,ine m. m.,9.7,13-Jan-20,"The villa is very satisfying, exactly the same as in the picture. the swimming pool is okay, the view is also okay. Suitable for families and group gatherings. 1 room on the 2nd floor, 3 rooms on the 3rd floor room 4th floor (access from the 4th floor.) The place is quite above so it is better to prepare food (stove), cooking utensils and cutlery complete, afraid online does not want to deliver food. The lack of water in the washing place at the beginning came out rather dirty (like rice washing water) but after being left for 2 minutes, the water will be normal (hopefully already checked and repaired) The point is me and my friends really enjoy a vacation there.",4 BR Hill View Villa with a private pool 2,0,0,0,0,0,0,0,1,VILLAS,8.9,0,0,1,0,Impressive,30,4,"Jalan Dago Pakar Permai 2 no D53, Resor Dago Pakar,, Dago Atas, Bandung, Jawa Barat, Indonesia",-6.8691238,107.6354679,Taman Hutan Raya Juanda,,,
1616,1003616,Del R.,9.7,25-Oct-21,"Sneeze, comfortable, friendly. Satisfied, those who serve check-in are really really good at their work. My advice, if you have a lot of interest, don't increase the price, consumers will run away again. After all, every hotel that I praise, uh, prices keep going up. .",OYO 1541 Puri Cikole Asri,0,0,0,1,0,0,0,0,HOTELS,7.4,0,1,0,0,Convenient,65,3,"Jl. Raya Tangkuban Parahu No.10d, Cikole, Lembang, Kabupaten Bandung Barat, Jawa Barat 40391, Indonesia, Kabupaten Bandung Barat, Lembang, Bandung, Jawa Barat, Indonesia, 40390",-6.797525,107.6526684,Kawah Putih,,,
256,1003867,Amelya P. K.,4.8,27-Feb-22,"Very disappointed! There is no receptionist looking after, bad service. No toiletries. The bathroom smells and the water doesn't turn on. Sorry horror!",OYO 90479 The Ethnic Hotel Bandung (all Suites),0,0,0,1,0,0,0,0,HOTELS,7.2,0,1,0,0,Convenient,35,4,"Stadion Siliwangi, Jalan Lombok, Citarum, Jawa Barat, 40113, Indonesia, Bandung, Sumurbandung, Bandung, Jawa Barat, Indonesia, 40103",-6.91056,107.6186236,Sate Building,,,
545,1003956,Rina H.,9.7,27-Nov-21,,Geulis Boutique Hotel & Cafe,0,0,0,1,0,0,0,0,HOTELS,8.9,0,0,1,0,Impressive,624,2,"Jalan Ir. Haji Juanda No.129, Dago, Dago, Bandung, Jawa Barat, Indonesia, 40122",-6.8912262,107.6127002,Sate Building,,,
2027,1027763,Chandra A.,9.7,09-Jan-22,"Luxurious room, near the  braga",Grand Dafam Braga Bandung,0,0,0,1,0,0,0,0,HOTELS,8.4,0,0,1,0,Impressive,297,5,"Jl. Braga 99 - 101 Bandung 40111, West Java, Indonesia, Braga, Bandung, Jawa Barat, Indonesia, 40110",-6.9170825,107.6089854,"Braga, Asia Afrika",,,
2313,1065381,patricia u.,9.7,05-Jan-16,"Nice villa, suitable for families, spacious, clean, minimalist designnya, cookware complete, only the unloading of sleep d room only 7 orng, if you want more orngnya dr 7 can ajh, but must bring their own sleeping bag rental ato extra bed",Villa Kesuma Syariah - 3 Bedroom,0,0,0,0,0,0,0,1,VILLAS,7.8,0,1,0,0,Convenient,10,4,"Jalan Mawar II No. 39, Cluster Graha Kesuma, Resort Dago Pakar, Dago, Bandung, Jawa Barat, Indonesia, 41097",-6.9174639,107.6191228,Taman Hutan Raya Juanda,,,
797,1071786,Titin S.,8.5,08-Jul-18,"Clean and neat, only the hot water is long out.",Buminanienie Guesthouse,0,0,1,0,0,0,0,0,GUEST HOUSES,8.1,0,1,0,0,Convenient,72,4,"Jalan Wira Angun-angun No.15, Citarum, Bandung Wetan, Riau Street, Bandung, Jawa Barat, Indonesia, 40114",-6.9044901,107.6144342,Geological Museum,,,
1192,1095932,Lingga L.,6.1,26-Feb-22,,Shinta Corner Ranch and Resort,0,0,0,0,0,0,0,1,VILLAS,8,0,1,0,0,Convenient,238,5,"Jalan Raya Sukamenak Nomor 21 Pangalengan, Bandung Selatan, Pangalengan, Bandung, Jawa Barat, Indonesia, 40377",-7.1859523,107.5861442,Kawah Putih,,,
780,1111581,mamik,8.5,11-Apr-21,homey.. clean.. quiet atmosphere...not too hectic...preferred to choose while stay in bandung,Saninten Inn,0,0,0,1,0,0,0,0,HOTELS,9.1,0,0,0,1,Superb,292,3,"Jalan Saninten No 65 Bandung, Riau Street, Bandung, Jawa Barat, Indonesia, 40114",-6.9057647,107.6273261,Geological Museum,,,
2464,1159758,chris s.,9.4,04-Nov-19,"The villa is comfortable, clean, big enough, only quite a lot of insects, grasshoppers and crickets but not too annoying, the travel field is also safe, not too far from the city, no bad comments, but there are only 4 queen size mattresses, must add another mattress rental , check-out information is also at 2, which is correct at 12, but allowed check-out at 2an less, thanks a lot and continued success",Spring Hill Villa Syariah Bandung - 4 Bedrooms,0,0,0,0,0,0,0,1,VILLAS,9,0,0,1,0,Impressive,37,4,"Jalan Daisy Garden no. 56, Cluster Spring Hill, Resort Dago Pakar, Dago, Bandung, Jawa Barat, Indonesia, 40197",-6.8590609,107.6524849,Taman Hutan Raya Juanda,,,
284,1161502,Romi H.,9.4,10-Dec-19,Wifi is not good & Breakfast is standard,Anggrek Shopping Hotel,0,0,0,1,0,0,0,0,HOTELS,8.5,0,0,1,0,Impressive,1762,5,"Jl. LL.RE.Martadinata No. 15, Riau Street, Bandung, Jawa Barat, Indonesia, 40105",-6.9066182,107.6118679,Sate Building,,,
1722,1173180,Achdiat S.,4.8,04-Nov-19,"This villa is really rubbish. Dont ever rent here, its all different from the photos. Until there at 7 pm, I was tired of traffic, until the villa turned out to be in this condition. It so happened that my parents stayed without me, and I was not able to be contacted until 10 pm. The villa clerk said that if you buy online, the condition can be maintained, so dont buy through an online agent tomorrow so you can get a good deal. For 3 hours my parents settled the villa until they bought a mop broom. After I could be contacted and I knew the condition, I immediately became angry. Send them out to find another villa, then I contact an online agent. Fortunately online agents are helpful. Right then it was changed to another villa. 11 o'clock at night move the villa. But really disappointed, 4 hours my parents were taking care of the trash villa. The hope is that they will be able to relax and become very peer. Management of the palace villa Bunga Sucks.",Villa Istana Bunga - Rotensia,0,0,0,0,0,0,0,1,VILLAS,8.1,0,0,1,0,Impressive,4,4,"Jalan Kolonel Masturi km 9, Parompong Cisarua ( Komplek Rotensia Villa Istana Bunga), Parongpong, Bandung, Jawa Barat, Indonesia, 40558",-6.8293023,107.5542432,Kawah Putih,,,
2280,1186492,miranda m.,9.7,31-Dec-19,"The villa is clean, the interior is nice.",Villa Verna AV4 Dago Village,0,0,0,0,0,0,0,1,VILLAS,8,0,1,0,0,Convenient,14,4,"Jalan Lebak Siuh Dago Pakar Timur Ciburial Bandung, Dago, Bandung, Jawa Barat, Indonesia, 40197",-6.8650382,107.6230564,Taman Hutan Raya Juanda,,,
716,1186592,Stephanny F.,8.5,05-Apr-21,"The staff must learn more about handling the guest. Dini, the girl whatever her position on this hotel, keep give us super bad argumentation when we do check in today. Not impressed with her skill on communication",Mitra Hotel Bandung,0,0,0,1,0,0,0,0,HOTELS,8.5,0,0,1,0,Impressive,5306,1,"Jalan W.R. Supratman No. 98, Cibeunying, Bandung, Jawa Barat, Indonesia, 40122",-6.9019507,107.6273712,Geological Museum,,,
52,1197908,muhamad e. s.,8.5,11-Mar-22,,Hotel Vio Cimanuk,0,0,0,1,0,0,0,0,HOTELS,8.4,0,0,1,0,Impressive,2700,5,"Jalan Cimanuk No. 15, Riau Street, Bandung, Jawa Barat, Indonesia, 40105",-6.9031712,107.6212606,Sate Building,,,
1656,1210559,Anton W.,9.7,20-Oct-21,"I stayed here for the 2nd times with my family. It is always a pleasant experience to stay here. Bedroom is very spacious & clean. Bathroom also very clean & hot water is running, which is important for those who travels with babies. Although located beside main road of Lembang, but it 's not noisy since there are less vehicle passing in front of this hotel at night time. What impresses me is their security who washes our car early in the morning before we leave. Great service for value. Will definitely stay here again next time I comeback to Lembang.",Saung Balibu Hotel,0,0,0,1,0,0,0,0,HOTELS,8.5,0,0,1,0,Impressive,1190,4,"Jalan Tangkuban Perahu No. 168 Cibogo - Cikole Lembang - Bandung, Lembang, Bandung, Jawa Barat, Indonesia, 40390",-6.8091287,107.6464558,Kawah Putih,,,
1866,1221832,Olivia A. P.,8.5,03-Oct-21,"Very good, spacious, complete facilities, the best, anyway",Notes from the Mountains,0,0,0,0,0,0,0,1,VILLAS,8.7,0,0,1,0,Impressive,24,5,"Jalan Krisan No.1,RT 03 RW 010, Kavling Stroberi, Terusan Sersan Bajuri, Cihideung, Parongpong, Lembang, Bandung, Jawa Barat, Indonesia, 40558",-6.8122843,107.596327,Kawah Putih,,,
207,1231996,Vira V.,9.4,05-Jan-22,,Amaroossa Bandung,0,0,0,1,0,0,0,0,HOTELS,8.2,0,1,0,0,Convenient,5369,4,"Jalan Aceh No 71A, Riau Street, Bandung, Jawa Barat, Indonesia, 40105",-6.908499,107.6184802,Sate Building,,,
1901,1234354,Yudistira m. w.,8.5,03-Jan-21,,SanGria Resort & Spa,0,0,0,1,0,0,0,0,HOTELS,8.7,0,0,1,0,Impressive,958,2,"Jalan Holtikultura No. 88 Lembang, Lembang, Bandung, Jawa Barat, Indonesia, 40390",-6.8167468,107.6098218,Kawah Putih,,,
1112,1235103,Eti S.,9.4,25-Jan-19,,Sindang Reret Hotel Ciwidey,0,0,0,1,0,0,0,0,HOTELS,8.2,0,1,0,0,Convenient,329,4,"Jalan Raya Ciwidey Km 25 Pasir Jambu, Ciwidey, Bandung, Jawa Barat, Indonesia",-7.0833631,107.4827902,Kawah Putih,,,
2541,1240235,Ahmad J.,5.8,17-Jul-19,,Mendulang Lembang Resort & Villa,0,0,0,1,0,0,0,0,HOTELS,7.7,0,1,0,0,Convenient,541,5,"Jalan Pabrik Gitar Desa Pagerwangi Lembang, Lembang, Bandung, Jawa Barat, Indonesia, 40390",-6.8376142,107.6244915,Taman Hutan Raya Juanda,,,
1836,1241481,Dee Y.,10,11-Jul-19,,Samakta Guest House,0,0,1,0,0,0,0,0,GUEST HOUSES,8.8,0,0,1,0,Impressive,362,5,"Jalan Hortikultura No.01 RT 01 RW 05 Desa Jayagiri Kecamatan Lembang, Lembang, Bandung, Jawa Barat, Indonesia, 40390",-6.8100346,107.6171406,Kawah Putih,,,
769,1260250,paulus b.,9,09-Jan-19,"The great thing about this Hotel is location, it is near the famous landmark and city attraction, that you can reach by foot. The only downside that it is old Hotel and not well maintained you can find dust in some corner. But other then that it's awesome",De'Qur Hotel Bandung,0,0,0,1,0,0,0,0,HOTELS,7.6,0,1,0,0,Convenient,866,5,"Jalan Dipatiukur No.27, Bandung, Dago, Bandung, Jawa Barat, Indonesia, 40122",-6.8955135,107.6163928,Geological Museum,,,
91,1262205,afifah r.,8.5,13-Aug-21,"Very nice place, strategic location and good staff!",Hotel Vio Surapati,0,0,0,1,0,0,0,0,HOTELS,8.4,0,0,1,0,Impressive,4307,4,"Jalan Surapati No. 51, Dago, Bandung, Jawa Barat, Indonesia, 40105",-6.899511,107.628641,Sate Building,,,
1390,1265111,Febria F.,8.8,10-Nov-21,"The inn is good on a hill, there is a kitchen but it is not clean, there is a warm water bath but in my opinion the water is not warm, but okay, overall the place is good to relax from noise and busyness, because the place is quiet.",Triangle Marindu,0,0,0,0,0,0,0,1,VILLAS,7.6,0,1,0,0,Convenient,31,5,"Jl Sari Ater no 29 Ciater -Subang , Lembang, Ciater, Bandung, Indonesia, 41279",-6.7346335,107.652374,Kawah Putih,,,
1371,1273416,Guest-wqbxdq,8.5,19-Jun-21,"Unclean room, I do not like it",OYO 3040 D'pineapple Villa,0,0,0,0,0,0,0,1,VILLAS,8.1,0,1,0,0,Convenient,263,2,"0000, Ciater, Jawa Barat, Subang,41281, Indonesia, Lembang, Ciater, Bandung, Indonesia, 41280",-6.7471523,107.6392892,Kawah Putih,,,
499,1284765,,,,,Deluxe Studio Room @ Tamansari La Grande Apartment,0,1,0,0,0,0,0,0,APARTMENTS,0,0,0,0,0,0,0,0,"Tower A 06FL-20 Jl. Merdeka, Babakan Ciamis, Sumur, Merdeka, Bandung, Jawa Barat, Indonesia, 40117",-6.9140652,107.6108202,Sate Building,,,
530,1304421,deddy c.,9.7,02-Feb-22,"Service is good, city view from room is wonderful.",Best Western Premier La Grande Hotel,0,0,0,1,0,0,0,0,HOTELS,8.6,0,0,1,0,Impressive,8989,5,"Tower A Lt. 06, No.20, Jl. Merdeka, Babakan Ciamis, Sumur Bandung, Kota Bandung, Jawa Barat , Merdeka, Bandung, Jawa Barat, Indonesia, 40117",-6.9119722,107.6104996,Sate Building,,,
1981,1306956,Deni A.,9.7,21-Mar-22,,Pasar Baru Square Hotel Bandung,0,0,0,1,0,0,0,0,HOTELS,8.6,0,0,1,0,Impressive,3463,5,"Jl. Otto Iskandar Dinata No.70, Kb. Jeruk, Kec. Andir, Kota Bandung, Jawa Barat 40180",-6.9178719,107.6033253,"Braga, Asia Afrika",,,
1977,1307855,Marselinus D. W. B.,6.1,31-Oct-21,"No hot water, so difficult calling to receptionist.",The Naripan Hotel by KAGUM Hotels,0,0,0,1,0,0,0,0,HOTELS,8.1,0,1,0,0,Convenient,3094,5,"Jln Naripan 31 - 35 Bandung, Braga, Bandung, Jawa Barat, Indonesia, 40110",-6.9196914,107.6118217,"Braga, Asia Afrika",,,
1289,1309435,adytya,8.5,06-Dec-21,"Helpful staff, cozy cabin, but hot water must wait for 15min.",Bobocabin Cikole,0,0,0,0,0,0,1,0,CAMPING,8.3,0,0,1,0,Impressive,99,4,"Genteng Lapang Jend. No.1, Cikole, Lembang, West Bandung Regency, West Java 40391, Lembang, Bandung, Jawa Barat, Indonesia, 40390",-6.7847805,107.6481423,Kawah Putih,,,
1281,1310624,Ila S. C.,9.1,27-Mar-22,,Bobocabin Cikole,0,0,0,0,0,0,1,0,CAMPING,8.3,0,0,1,0,Impressive,99,4,"Genteng Lapang Jend. No.1, Cikole, Lembang, West Bandung Regency, West Java 40391, Lembang, Bandung, Jawa Barat, Indonesia, 40390",-6.7847805,107.6481423,Kawah Putih,,,
2348,1318494,Ferri A.,8.5,27-Dec-18,,Hotel Bukit Juanda Bandung,0,0,0,1,0,0,0,0,HOTELS,0,0,0,0,0,0,478,0,"Jalan Ir. H. Juanda No. 448, Dago Atas, Bandung, Jawa Barat, Indonesia, 40134",-6.8684083,107.6208385,Taman Hutan Raya Juanda,,,
1742,1318625,Tasya M.,5.8,01-May-17,"The villa location is ok. Breakfast very disappointing.Breakfast till 10am, but 9 o&#39;clock already on run out. The facilities at the alium were disappointing, as the rice cooker was broken, the frying pan did not exist, the hot water was dead alive. The price is too expensive for this villa.",Villa Istana Bunga - Alium,0,0,0,0,0,0,0,1,VILLAS,8,0,1,0,0,Convenient,9,5,"Jl Kolonel Masturi km 9, Lembang, Parongpong, Bandung, Jawa Barat, Indonesia, 40558",-6.8028641,107.5829828,Kawah Putih,,,
2351,1319392,Maria T.,8.5,02-Nov-18,,4 BR Mountain View Villa with a private pool 1,0,0,0,1,0,0,0,0,HOTELS,9,0,0,1,0,Impressive,30,4,"Jalan Bukit Cemara Elok No. 8, Resor Dago Pakar, Dago, Bandung, Jawa Barat, Indonesia, 40134",-6.8618995,107.6509429,Taman Hutan Raya Juanda,,,
1554,1330527,Ina A.,8.8,26-Dec-21,,Grand Paradise Hotel,0,0,0,1,0,0,0,0,HOTELS,7.7,0,1,0,0,Convenient,1730,5,"Jl.Raya Tangkuban Perahu No.50, Lembang, Bandung, Jawa Barat, Indonesia, 40191",-6.8108694,107.6249771,Kawah Putih,,,
2305,1334159,Lila A. A.,9.4,30-Dec-18,"Very recommended, clean and comfortable.",Villa Mawar Syariah - 3 Bedroom,0,0,0,0,0,0,0,1,VILLAS,9.2,1,0,0,0,Superb,20,5,"Jalan Mawar I no. 31, Cluster Graha Kusuma, Resort Dago Pakar, Dago, Bandung, Jawa Barat, Indonesia, 41090",-6.8675325,107.6352826,Taman Hutan Raya Juanda,,,
1223,1339408,Dendy K. P.,8.8,24-Oct-21,"Huge parking space, nice place, good taste of breakfast, and nay varians of breakfast. But my room liitle smoke scent even I have reserved non-smoking room.",Sutan Raja Hotel and Convention Centre,0,0,0,1,0,0,0,0,HOTELS,8.2,0,1,0,0,Convenient,1786,1,"Jl. Raya Soreang No.10 KM.17 Soreang, Soreang, Bandung, Jawa Barat, Indonesia, 40910",-7.0166924,107.5472021,Kawah Putih,,,
1829,1343501,bernes l.,9.7,29-Nov-20,Nice place and very good service __,Samakta Guest House,0,0,1,0,0,0,0,0,GUEST HOUSES,8.8,0,0,1,0,Impressive,362,4,"Jalan Hortikultura No.01 RT 01 RW 05 Desa Jayagiri Kecamatan Lembang, Lembang, Bandung, Jawa Barat, Indonesia, 40390",-6.8100346,107.6171406,Kawah Putih,,,
661,1348010,Novita,9.7,14-Dec-21,,Hotel Bumi Asih Gedung Sate Bandung,0,0,0,1,0,0,0,0,HOTELS,8.5,0,0,1,0,Impressive,1882,4,"Jalan Cilamaya No 1, Riau Street, Bandung, Jawa Barat, Indonesia, 40114",-6.9032993,107.6166768,Geological Museum,,,
1229,1354206,Desi N.,6,30-Sep-20,"Room have no chair, walls are disgusting no covid protocols such as spread disinfectant and stuff.",Sutan Raja Hotel and Convention Centre,0,0,0,1,0,0,0,0,HOTELS,8.2,0,1,0,0,Convenient,1786,4,"Jl. Raya Soreang No.10 KM.17 Soreang, Soreang, Bandung, Jawa Barat, Indonesia, 40910",-7.0166924,107.5472021,Kawah Putih,,,
1230,1354331,Evi Y.,8.5,10-Sep-20,,Sutan Raja Hotel and Convention Centre,0,0,0,1,0,0,0,0,HOTELS,8.2,0,1,0,0,Convenient,1786,5,"Jl. Raya Soreang No.10 KM.17 Soreang, Soreang, Bandung, Jawa Barat, Indonesia, 40910",-7.0166924,107.5472021,Kawah Putih,,,
1231,1355362,Yuliana K.,9.1,24-Aug-20,,Sutan Raja Hotel and Convention Centre,0,0,0,1,0,0,0,0,HOTELS,8.2,0,1,0,0,Convenient,1786,1,"Jl. Raya Soreang No.10 KM.17 Soreang, Soreang, Bandung, Jawa Barat, Indonesia, 40910",-7.0166924,107.5472021,Kawah Putih,,,
1805,1357673,Iis K.,9.4,30-Jan-21,,Grand Hotel Lembang,0,0,0,1,0,0,0,0,HOTELS,7.8,0,1,0,0,Convenient,2816,1,"Jl. Raya Lembang No. 272, Lembang, Bandung, Jawa Barat, Indonesia, 40390",-6.811868,107.616338,Kawah Putih,,,
1785,1357846,Taufik H.,9.1,25-Jun-18,"Nice villa, clean, big family satisfied and happy, close to Lembang tourist attractions.",Villa Manis Lembang,0,0,0,0,0,0,0,1,VILLAS,8.2,0,1,0,0,Convenient,236,3,"Jalan Cisurian No.57 Rt.01 Rw. 01,Desa Cigugur Girang Parongpong, Parongpong, Bandung, Jawa Barat, Indonesia",-6.8235206,107.5889804,Kawah Putih,,,
2239,1366280,YOHANES,8.5,05-Jun-19,"I am really love stay at the balcony, peaceful side in the morning with a cup of tea less sugar. the hostel grab my favorite place. backpacker come here and you will get mood boster.",Rumah Kiboku,0,0,1,0,0,0,0,0,GUEST HOUSES,8.7,0,0,1,0,Impressive,231,5,"Jalan Raya Dago Golf No. 2B, Dago Atas, Bandung, Jawa Barat, Indonesia, 40135",-6.866951,107.6247302,Taman Hutan Raya Juanda,,,
1671,1393337,BAIHAQI,8.5,21-Dec-20,,Hotel Bumi Makmur Indah Lembang,0,0,0,1,0,0,0,0,HOTELS,8.7,0,0,1,0,Impressive,3349,5,"Jalan Raya Lembang No.224 Lembang, Lembang, Bandung, Jawa Barat, Indonesia, 40390",-6.8132787,107.6155207,Kawah Putih,,,
202,1406006,Riandy R. N.,9.7,19-Jan-20,Great place to stay in Bandung,OYO 1452 Hotel Utari,0,0,0,1,0,0,0,0,HOTELS,8.1,0,1,0,0,Convenient,983,4,"Jalan Ir. H Juanda No. 50 , Dago, Bandung, Jawa Barat, Indonesia, 40105",-6.9008204,107.6125846,Sate Building,,,
1444,1410001,Siti A.,8.8,18-Jun-21,"Planning 1 night turned into 2 nights. Adit and Ahmad are kind, friendly and very helpful! Thank you traveloka.",Van House,0,0,0,0,0,0,0,1,VILLAS,8.8,0,0,1,0,Impressive,249,5,"Jl. Cibedug No 08 RT / 01 RW 10 Ds. Cikole Kec. Lembang Kab Bandung Barat, Lembang, Bandung, Jawa Barat, Indonesia, 40390",-6.7958785,107.6484738,Kawah Putih,,,
973,1410003,Ken,8,09-Jan-22,,Deluxe and Simply Studio at Tamansari La Grande Apartment By Travelio,0,1,0,0,0,0,0,0,APARTMENTS,0,0,0,0,0,0,0,0,"Tower A Lantai 18; Jl. Merdeka, Babakan Ciamis, Sumur Bandung, Kota Bandung, Jawa Barat , Merdeka, Bandung, Jawa Barat, Indonesia, 40117",-6.9140643,107.6108195,Geological Museum,,,
1917,1410347,Melvin T.,5.8,10-Sep-18,"The towels and bed sheets are dirty. The floor was dirty, the bathroom also dirty. There were lots of rubbish in front of the room.",Maple House Hotel Lembang @ Villa Istana Bunga,0,0,0,1,0,0,0,0,HOTELS,7.5,0,1,0,0,Convenient,74,3,"Jl. Kolonel Masturi Km. 9 Parongpong Cisarua Lembang, Parongpong, Bandung, Jawa Barat, Indonesia, 40558",-6.8028641,107.5829828,Kawah Putih,,,
1345,1411453,Susi A.,8.2,28-Feb-22,,Villa Marindu And Glamping,0,0,0,0,0,0,0,1,VILLAS,7.8,0,1,0,0,Convenient,270,5,"Jalan Sariater No. 29, Lembang, Ciater, Bandung, Indonesia, 41280",-6.7346335,107.652374,Kawah Putih,,,
1129,1415477,Eka W.,8.5,17-Aug-21,Keep improving,Argapuri Resort,1,0,0,0,0,0,0,0,RESORTS,7.9,0,1,0,0,Convenient,185,3,"Jl. Gambung, Km. 6, Pasir jambu, Ciwidey, Bandung, Pasirjambu, Bandung, Jawa Barat, Indonesia, 40971",-7.1308521,107.5134355,Kawah Putih,,,
907,1416394,Muhammad I.,9.1,19-Dec-21,,M Premiere Hotel Dago,0,0,0,1,0,0,0,0,HOTELS,8.6,0,0,1,0,Impressive,4187,4,"Jl. Sultan Tirtayasa No. 5, Dago, Bandung, Jawa Barat, Indonesia, 40114",-6.9023519,107.6124921,Geological Museum,,,
2271,1430997,Shelly L.,6.3,28-Mar-22,"At first we just want to relax in the villa but we found out that beside the villa was still under construction that were still very busy and noisy from 7.30am-5pm. Lots of worker wandering around the house and some of them keep looking inside our villa and made us very unsafe and uncomfortable. We booked for 2nights and plan to spend the whole day in the villa but our plan have changed. We have to go out from morning until 5pm just to avoid the noises. My advice is better to check with the host before booking because the house which is under construction is very disturbing and the workers can see inside the villa. There is no AC in the room but they do have a fan in each room but still my kids were sweating when they sleep at night. In the afternoon on the 2nd floor its very warm. They only have 1 TV on the 2nd floor and the place quiet small for all of us (3 adults 3 kids) to fit in with just a small sofa. The capacity for hot water in the bathroom not much and not stable, sometimes we have to wait for few minutes until the hot water out. The best is the fresh air there, the kitchen tools is clean, nice pool with a clean pool water but the water was to cold to swim. Nice and clean living room, good air circulation in the living room and nice place to hangout but unfortunately there is no TV.",Villa Verna AV4 Dago Village,0,0,0,0,0,0,0,1,VILLAS,8,0,1,0,0,Convenient,14,5,"Jalan Lebak Siuh Dago Pakar Timur Ciburial Bandung, Dago, Bandung, Jawa Barat, Indonesia, 40197",-6.8650382,107.6230564,Taman Hutan Raya Juanda,,,
894,1439449,Agnes,9.7,09-Mar-22,,Mercure Bandung Nexa Supratman,0,0,0,1,0,0,0,0,HOTELS,8.8,0,0,1,0,Impressive,5362,5,"Jalan WR. SUPRATMAN No. 66 - 68, Cibeunying, Bandung, Jawa Barat, Indonesia, 40112",-6.9049088,107.6291232,Geological Museum,,,
2439,1467168,Ariyanti,9.1,16-Mar-22,,Clove Garden Hotel & Residence,0,0,0,1,0,0,0,0,HOTELS,8.3,0,0,1,0,Impressive,14487,5,"Jl. Awiligar Raya Dago Pakar II Bandung Jawa Barat 40191, Dago, Bandung, Jawa Barat, Indonesia, 40190",-6.8746722,107.64137,Taman Hutan Raya Juanda,,,
1840,1477194,Amelia F.,9.7,16-Dec-20,,Villa Lemon,0,0,0,0,0,0,0,1,VILLAS,8.8,0,0,1,0,Impressive,925,5,"Jalan Holtikultura No.18 , Lembang, Bandung, Jawa Barat, Indonesia, 40390",-6.8164567,107.6103796,Kawah Putih,,,
1468,1506415,Efri A.,8.5,28-Dec-19,,Jayagiri Guesthouse,0,0,1,0,0,0,0,0,GUEST HOUSES,8.8,0,0,1,0,Impressive,1170,3,"Jalan Jayagiri No. 54, Lembang, Bandung, Jawa Barat, Indonesia, 40390",-6.8073445,107.6195828,Kawah Putih,,,
31,1530163,asep b.,9.7,13-Sep-21,,Hotel Bumi Asih Gedung Sate Bandung,0,0,0,1,0,0,0,0,HOTELS,8.5,0,0,1,0,Impressive,1882,4,"Jalan Cilamaya No 1, Riau Street, Bandung, Jawa Barat, Indonesia, 40105",-6.9032993,107.6166768,Sate Building,,,
782,1530338,Dera F. R.,9.7,22-Dec-19,Had the most pleasant stay here. Corsica is kinda like my second bedroom. Lol,Hotel Corsica,0,0,1,0,0,0,0,0,GUEST HOUSES,8.5,0,0,1,0,Impressive,1496,4,"Jalan Supratman No.43A, Bandung Wetan , Cibeunying, Bandung, Jawa Barat, Indonesia, 40113",-6.9046339,107.6281446,Geological Museum,,,
1377,1532924,TRI L. S.,8.5,08-Feb-20,,Osmond Villa Resort,0,0,0,0,0,0,0,1,VILLAS,8.5,0,0,1,0,Impressive,170,5,"Jalan Gunung Putri Desa Jayagiri, Lembang, Lembang, Bandung, Jawa Barat, Indonesia",-6.8036234,107.6290805,Kawah Putih,,,
1363,1538293,melani n.,5.5,13-Oct-21,"Dirty villa, not maintained properly, a lot of flies, smells bad.",Omah Angkul Angkul Pool Villa,0,0,0,0,0,0,0,1,VILLAS,8.4,0,0,1,0,Impressive,128,5,"Jalan Raya Lembang Asri No.110 Lembang, Lembang, Bandung, Jawa Barat, Indonesia, 40263",-6.7947958,107.5996385,Kawah Putih,,,
529,1545267,deddy c.,9.4,04-Feb-22,"Good service, good city view. Overall this hotel is great.",Best Western Premier La Grande Hotel,0,0,0,1,0,0,0,0,HOTELS,8.6,0,0,1,0,Impressive,8989,1,"Tower A Lt. 06, No.20, Jl. Merdeka, Babakan Ciamis, Sumur Bandung, Kota Bandung, Jawa Barat , Merdeka, Bandung, Jawa Barat, Indonesia, 40117",-6.9119722,107.6104996,Sate Building,,,
1628,1555621,merly j. s.,8.5,24-Dec-18,,Hotel Alpha Classica,0,0,0,1,0,0,0,0,HOTELS,8.7,0,0,1,0,Impressive,1322,4,"Jalan Tangkuban Perahu No.25, Lembang, Lembang, Bandung, Jawa Barat, Indonesia",-6.8111488,107.6241098,Kawah Putih,,,
315,1560945,Qee,4.8,18-Nov-21,Worst experience of stay ever. You pay peanut you get monkey. Don't expect too much,Gandasari Hotel,0,0,0,1,0,0,0,0,HOTELS,8.3,0,0,1,0,Impressive,2437,2,"Jl. Seram No. 3 Kel. Citarum Kec. Bandung Wetan, Riau Street, Bandung, Jawa Barat, Indonesia, 40105",-6.9080239,107.6129776,Sate Building,,,
1070,1562258,Shuni,8.8,14-Jul-21,,Patuha Tjiwideij - Kawah Putih Ciwidey,0,0,0,1,0,0,0,0,HOTELS,8,0,1,0,0,Convenient,906,4,"Jl. Raya Situ Patenggang Km.8, Ciwidey , Ciwidey, Bandung, Jawa Barat, Indonesia, 40972",-7.1310777,107.4117617,Kawah Putih,,,
435,1566565,Uli,8.4,21-Jul-19,"Fine place to stay short. Breakfast ok, room ok.",Hotel Corsica,0,0,1,0,0,0,0,0,GUEST HOUSES,8.5,0,0,1,0,Impressive,1496,4,"Jalan Supratman No.43A, Bandung Wetan , Cibeunying, Bandung, Jawa Barat, Indonesia, 40104",-6.9046339,107.6281446,Sate Building,,,
1094,1568716,Maevi S.,9.4,19-Feb-22,"Location near the main road, noisy vehicles passing by so can't sleep, everything else is ok.",Ciwidey Homestay,0,0,0,0,0,0,0,1,VILLAS,8.5,0,0,1,0,Impressive,14,3,"Lebakmuncang, Kec. Ciwidey, Bandung, Jawa Barat 40973, Ciwidey, Bandung, Jawa Barat, Indonesia, 40973",-7.1142228,107.4460426,Kawah Putih,,,
1150,1602503,Desy I.,9.7,13-Dec-21,,DRIAM RIVERSIDE,0,0,0,1,0,0,0,0,HOTELS,8.5,0,0,1,0,Impressive,1320,4,"Jalan Soreang - Ciwidey, Km. 25, Ciwidey, Pasirjambu, Bandung, Jawa Barat, Indonesia, 40971",-7.0334665,107.5032943,Kawah Putih,,,
1030,1608341,Ajeng D. P.,9.1,01-Dec-19,"Good position at the peak. The water is really cold, suitable for the ice bucket challenge, although I advise you who want to stay in a crowded place so that it&#39;s cheap because Pak Ali doesn&#39;t differentiate how many people. Rent an angkot can also be used for busy streets. If the facilities are so so, it&#39;s like staying at a resident&#39;s house.",ALI1 Pondok Orange 1 Ciwidey,0,0,0,0,0,1,0,0,HOMESTAYS,8.8,0,0,1,0,Impressive,85,5,"Kampung Cimanggu RT/RW 01 Desa Patengan, ranca bali Bandung, Ciwidey, Bandung, Jawa Barat, Indonesia, -",-7.1444662,107.3915287,Kawah Putih,,,
654,1615727,Yuanita P.,10,08-Feb-22,Comfy. Spacious. Over all amazing ______,Pullman Bandung Grand Central,0,0,0,1,0,0,0,0,HOTELS,8.6,0,0,1,0,Impressive,675,1,"Jl Diponegoro No 27, Citarum, Bandung Wetan, Cibeunying, Bandung, Jawa Barat, Indonesia, 40114",-6.9006712,107.6174754,Geological Museum,,,
365,1618887,Bima M. P.,9.7,13-Jun-21,Really recommended. The room was really comfortable.,Saninten Inn,0,0,0,1,0,0,0,0,HOTELS,9.1,0,0,0,1,Superb,292,5,"Jalan Saninten No 65 Bandung, Riau Street, Bandung, Jawa Barat, Indonesia, 40105",-6.9057647,107.6273261,Sate Building,,,
2267,1621302,Indah D.,6.3,20-Nov-21,"It was so dirty, and the door was broken.",Marbella Hotel Dago Bandung,0,0,0,1,0,0,0,0,HOTELS,8,0,1,0,0,Convenient,5091,5,"Jalan Sentra Dago Pakar, Dago, Dago Atas, Bandung, Jawa Barat, Indonesia, 40198",-6.869581,107.632386,Taman Hutan Raya Juanda,,,
2205,1635111,Susanti A.,9.7,30-May-21,"Good Villa collaboration good place, nature and fresh air. I will come again to stay at their.",VillaTel Salse,0,0,0,1,0,0,0,0,HOTELS,8.7,0,0,1,0,Impressive,1140,5,"Jalan Sukanegara No 88 Pagerwangi - Lembang Kab. Bandung Barat , Dago Atas, Bandung, Jawa Barat, Indonesia, 40381",-6.8452771,107.6284536,Taman Hutan Raya Juanda,,,
586,1643082,Alma S.,8.5,14-Jan-22,,Hotel Riau Bandung,0,0,1,0,0,0,0,0,GUEST HOUSES,7.9,0,1,0,0,Convenient,970,4,"Jl. RE. Martadinata No. 191, Sumurbandung, Riau Street, Bandung, Jawa Barat, Indonesia, 40114",-6.9115576,107.6279597,Sate Building,,,
1383,1662810,Clau m.,9,08-Jan-17,"Good short vacation with family. However, kind of disturbed by the sounds of mosque praying around 4am. Too loud, Thank you",Osmond Villa Resort,0,0,0,0,0,0,0,1,VILLAS,8.5,0,0,1,0,Impressive,170,1,"Jalan Gunung Putri Desa Jayagiri, Lembang, Lembang, Bandung, Jawa Barat, Indonesia",-6.8036234,107.6290805,Kawah Putih,,,
1370,1669615,isnaini,9.3,03-Sep-21,,OYO 3040 D'pineapple Villa,0,0,0,0,0,0,0,1,VILLAS,8.1,0,1,0,0,Convenient,263,2,"0000, Ciater, Jawa Barat, Subang,41281, Indonesia, Lembang, Ciater, Bandung, Indonesia, 41280",-6.7471523,107.6392892,Kawah Putih,,,
1307,1680785,Tarida D. D.,6.1,05-Mar-22,"There is no water heater, bathroom is too far from bedroom, extra bed is too expensive, spider webs found in bedroom and ceiling.",DGYP 5 Ciater,0,0,0,0,0,0,0,1,VILLAS,7.5,0,1,0,0,Convenient,45,4,"Parkir Barat Wisata Sari Ater, Ciater, Jawa Barat, Lembang, Ciater, Bandung, Indonesia, 41279",-6.7398681,107.6532326,Kawah Putih,,,
1579,1711816,TRI I. P.,6.5,28-Dec-21,"The room given did not match what was ordered, because the guard had received other guests in one of the rooms booked. Order a connecting room but only 1 can be used, replaced with a stage room where the toilet is far from the room. Hot water not working.",Lembur Incu Syariah Villa,0,0,0,0,0,0,0,1,VILLAS,7.5,0,1,0,0,Convenient,5,5,"Jl. Kolonel Masturi No.166, Sukajaya, Lembang, Kabupaten Bandung Barat, Jawa Barat 40391, Lembang, Bandung, Jawa Barat, Indonesia, 40390",-6.8046433,107.592529,Kawah Putih,,,
2343,1713521,harry p.,8.5,22-Nov-19,"good price, good location, it's all good",Hotel Bukit Juanda Bandung,0,0,0,1,0,0,0,0,HOTELS,0,0,0,0,0,0,478,0,"Jalan Ir. H. Juanda No. 448, Dago Atas, Bandung, Jawa Barat, Indonesia, 40134",-6.8684083,107.6208385,Taman Hutan Raya Juanda,,,
36,1715697,Desti S.,9.7,01-Mar-22,,Pullman Bandung Grand Central,0,0,0,1,0,0,0,0,HOTELS,8.6,0,0,1,0,Impressive,675,2,"Jl Diponegoro No 27, Citarum, Bandung Wetan, Cibeunying, Bandung, Jawa Barat, Indonesia, 40105",-6.9006712,107.6174754,Sate Building,,,
709,1716200,fajar h.,6.2,11-Dec-17,Because access to the room is rather complicated open the closing of the actual gate for the safety factor also,De Riau Cottage by HouseinBandung,1,0,0,0,0,0,0,0,RESORTS,8.1,0,1,0,0,Convenient,7,4,"Jl.Cipunagara No.15, Cibeunying, Bandung, Jawa Barat, Indonesia, 40113",-6.9034328,107.6265762,Geological Museum,,,
702,1719500,Mia A.,9.7,28-Mar-21,,Travelers Inn Dago,0,0,0,1,0,0,0,0,HOTELS,8.3,0,0,1,0,Impressive,1129,1,"Jalan Aria Jipang No. 6, Dago, Bandung, Jawa Barat, Indonesia, 40114",-6.8993376,107.6156364,Geological Museum,,,
796,1726687,Petra C.,8.5,20-Feb-19,"Strategic location, quiet, clean, friendly. Recommended.",Buminanienie Guesthouse,0,0,1,0,0,0,0,0,GUEST HOUSES,8.1,0,1,0,0,Convenient,72,3,"Jalan Wira Angun-angun No.15, Citarum, Bandung Wetan, Riau Street, Bandung, Jawa Barat, Indonesia, 40114",-6.9044901,107.6144342,Geological Museum,,,
1889,1734071,Ockty P.,9.7,27-Aug-21,Expensive,Emaki Almasoem Resort,1,0,0,0,0,0,0,0,RESORTS,8.4,0,0,1,0,Impressive,74,4,"jl. Suka senang, Desa Cibogo, Kecamatan Lembang Kabupaten Bandung Barat , Lembang, Bandung, Jawa Barat, Indonesia, 40390",-6.8147253,107.6355559,Kawah Putih,,,
445,1758791,Mellisa S.,6,25-Feb-20,smaller than expected and smells..but for the budget hotels still okeu,Ariandri Residence Hotel Cilaki,0,0,0,1,0,0,0,0,HOTELS,8.2,0,1,0,0,Convenient,950,5,"Jalan Cilaki No. 31, Riau Street, Bandung, Jawa Barat, Indonesia, 40114",-6.9056724,107.6277978,Sate Building,,,
1242,1760594,Bagus S.,6,02-Nov-20,Didn't get breakfast. Room photos do not match.,Soreang Hotel,0,0,0,1,0,0,0,0,HOTELS,7.5,0,1,0,0,Convenient,41,2,"Jl. Tol Soroja, Parungserab, Kec. Soreang, Bandung, Jawa Barat 40921, Soreang, Bandung, Jawa Barat, Indonesia, 40919",-7.0107388,107.5319847,Kawah Putih,,,
1490,1763163,Adinda L.,9.7,23-Dec-19,,Dusun Bambu Resort,1,0,0,0,0,0,0,0,RESORTS,8.7,0,0,1,0,Impressive,354,4,"Jl. Kol Masturi km 11 Cisarua , Parongpong, Bandung, Jawa Barat, Indonesia, 40541",-6.789289,107.5802928,Kawah Putih,,,
11,1765414,Irene D. P.,9.7,06-Feb-22,Great location and great room!,Pullman Bandung Grand Central,0,0,0,1,0,0,0,0,HOTELS,8.6,0,0,1,0,Impressive,675,3,"Jl Diponegoro No 27, Citarum, Bandung Wetan, Cibeunying, Bandung, Jawa Barat, Indonesia",-6.9006712,107.6174754,Sate Building,,,
1852,1797967,Nana,9,15-Feb-22,,Tea Garden Resort,1,0,0,0,0,0,0,0,RESORTS,8.2,0,1,0,0,Convenient,1478,4,"Dusun Cigeureung, Desa Cicadas, Kec. Sagala Herang, Lembang, Ciater, Bandung, Indonesia, 41281",-6.7152382,107.6407344,Kawah Putih,,,
2018,1819714,Mohammad T. R.,8.5,09-Feb-22,"Recommended Hotel, near Asia Afrika and Braga",Kimaya Braga Bandung by Harris,0,0,0,1,0,0,0,0,HOTELS,8.4,0,0,1,0,Impressive,376,2,"Jl. Braga No.8, Braga, Kec. Sumur Bandung, Kota Bandung, Jawa Barat 40111, Braga, Bandung, Jawa Barat, Indonesia, 40110",-6.9208377,107.6103301,"Braga, Asia Afrika",,,
466,1833509,Fanny P.,5.2,15-Mar-22,"The door unit was broken, lots of stains and holes on bedsheet, the air con didn't cool we had to ask the technician to fix it. The whole room was dirty (the mattress, the bathroom floor, etc).",Janévalla Bandung,0,0,0,1,0,0,0,0,HOTELS,8.8,0,0,1,0,Impressive,9029,4,"Jalan Aceh No. 65, Bandung, Jawa Barat, Merdeka, Bandung, Jawa Barat, Indonesia, 40115",-6.9095313,107.6114055,Sate Building,,,
249,1836056,Nurul A. O.,8.5,30-Nov-19,The services are always great even though we only got 1 night stay because all the guest house booked for wedding event. Reminds me to my grandma house back then,Selaras Guest House & Restaurant,0,0,1,0,0,0,0,0,GUEST HOUSES,9.1,0,0,0,1,Superb,525,3,"Jalan Taman Cibeunying Selatan No 45, Riau Street, Bandung, Jawa Barat, Indonesia, 40104",-6.9048057,107.6236129,Sate Building,,,
787,1840547,FX Sukoto,9.4,09-Aug-19,,Hotel Corsica,0,0,1,0,0,0,0,0,GUEST HOUSES,8.5,0,0,1,0,Impressive,1496,5,"Jalan Supratman No.43A, Bandung Wetan , Cibeunying, Bandung, Jawa Barat, Indonesia, 40113",-6.9046339,107.6281446,Geological Museum,,,
1752,1847870,Stefanus T.,6.1,18-Sep-17,Change villa to the worst one. I am very disappointed.,Villa Istana Bunga - Chamomile,0,0,0,0,0,0,0,1,VILLAS,7.3,0,1,0,0,Convenient,6,4,"Jalan Kol Masturi KM 9 Parongpong Cisarua, Lembang, Parongpong, Bandung, Jawa Barat, Indonesia",-6.8028641,107.5829828,Kawah Putih,,,
2374,1879408,NEYSA S.,6.3,24-Nov-21,"Limited hot water supply, need more maintenance.",Casa De Apple,0,0,1,0,0,0,0,0,GUEST HOUSES,8.5,0,0,1,0,Impressive,730,4,"Jalan Apel No. 2, Rancakendal, Dago, Dago Atas, Bandung, Jawa Barat, Indonesia, 40190",-6.8736894,107.6294625,Taman Hutan Raya Juanda,,,
2217,1895354,Imelda W.,8.5,27-Mar-22,"Very clean rooms, kitchen was awesome. Swimming pool also clean. It was a great place for small group gathering.",6 BR Hill View Villa with a private pool 2,0,0,0,0,0,0,0,1,VILLAS,9,0,0,1,0,Impressive,10,4,"Jalan Dago Pakar Permai 2 No.53 F, Komplek Resort Dago Pakar Bandung, Dago, Bandung, Jawa Barat, Indonesia, 40198",-6.8660319,107.635536,Taman Hutan Raya Juanda,,,
806,1904842,Dewy I.,8.5,05-Jan-21,,Flores Gallery Hotel,0,0,0,1,0,0,0,0,HOTELS,8.3,0,0,1,0,Impressive,1583,4,"Jalan Flores No. 7, Sumurbandung, Riau Street, Bandung, Jawa Barat, Indonesia, 40114",-6.9080875,107.6179482,Geological Museum,,,
173,1904917,Lutfi H.,8.5,21-Feb-22,"Great place to stay, very calm and quite.",Flores Gallery Hotel,0,0,0,1,0,0,0,0,HOTELS,8.3,0,0,1,0,Impressive,1583,4,"Jalan Flores No. 7, Sumurbandung, Riau Street, Bandung, Jawa Barat, Indonesia, 40105",-6.9080875,107.6179482,Sate Building,,,
1946,1948199,Santi,9.4,30-Nov-21,Good hotel with good price _ always comeback here.,Collection O 22 Hotel Pasar Baru Heritage,0,0,0,1,0,0,0,0,HOTELS,8.7,0,0,1,0,Impressive,1716,5,"Jl. Otto Iskandar Dinata No.84-92, Kb. Jeruk, Kec. Andir, Kota Bandung, Bandung, Braga, Bandung, Jawa Barat, Indonesia, 40180",-6.9177853,107.6038819,"Braga, Asia Afrika",,,
1322,1952145,Fitria T.,6.6,18-Oct-20,"thanks. In general, you can say that you are satisfied. The villa is spacious, the rooms are decent, the pillows and mattresses are plenty, the lighting is okay, the bathroom and water are great, even though the worms came out quite large when opening the water tap. request, please provide drinking water, at least refill gallon water for us to drink and cook. then, the curtain partially can't be closed. fixed yes boss.",Villa Lembang Asri R2,0,0,0,0,0,0,0,1,VILLAS,7.5,0,1,0,0,Convenient,45,5,"Villa Lembang Asri, Blok R, No.3, Jalan Kolonel Masturi KM.4 Lembang, Bandung, Lembang, Bandung, Jawa Barat, Indonesia, 40390",-6.8214083,107.6055204,Kawah Putih,,,
100,1953238,Alya S.,9.7,06-Sep-20,,Travelers Inn Dago,0,0,0,1,0,0,0,0,HOTELS,8.3,0,0,1,0,Impressive,1129,4,"Jalan Aria Jipang No. 6, Dago, Bandung, Jawa Barat, Indonesia, 40105",-6.8993376,107.6156364,Sate Building,,,
1756,1974692,Nathalia J.,9.1,30-May-18,Satisfying service. Good and strategic location.,Villa Istana Bunga - Tandera,0,0,0,0,0,0,0,1,VILLAS,7.3,0,1,0,0,Convenient,6,5,"Jalan Kol Masturi KM 9 Parongpong Cisarua, Lembang, Parongpong, Bandung, Jawa Barat, Indonesia",-6.8028641,107.5829828,Kawah Putih,,,
2383,1981589,Leka M. S.,8.5,14-Mar-21,Good nice cool excellent mantap,Wirton Hotel,0,0,0,1,0,0,0,0,HOTELS,8.2,0,1,0,0,Convenient,3720,4,"JL. Ir. H. Djuanda, No. 395, Dago Atas, Bandung, Jawa Barat, Indonesia, 40134",-6.8692365,107.6201911,Taman Hutan Raya Juanda,,,
1841,2002195,Nofi A. R.,8.5,06-Dec-20,"Second visit in here, happiness around",Villa Lemon,0,0,0,0,0,0,0,1,VILLAS,8.8,0,0,1,0,Impressive,925,5,"Jalan Holtikultura No.18 , Lembang, Bandung, Jawa Barat, Indonesia, 40390",-6.8164567,107.6103796,Kawah Putih,,,
176,2032290,Sekar,9.1,13-Sep-21,"It 's a quite decent 2 star hotel. The building is well managed and clean. However they need to improve on 2 things. First, their AC, during my stay, my room AC didn't work well and it felt hot inside the room (+ they don't have another ventilation except their see-through window). Second, the WIFI, signal was there but still can't access the internet. Overall it was a nice stay with Flores Gallery Hotel. Definitely will be back with hope of improvement.",Flores Gallery Hotel,0,0,0,1,0,0,0,0,HOTELS,8.3,0,0,1,0,Impressive,1583,5,"Jalan Flores No. 7, Sumurbandung, Riau Street, Bandung, Jawa Barat, Indonesia, 40105",-6.9080875,107.6179482,Sate Building,,,
1280,2092660,Resti S. U.,9.1,03-Jan-21,"Nice view, comfortable, and tasty breakfast. Good to have quality time with family here",Bukit Cikahuripan Resort,1,0,0,0,0,0,0,0,RESORTS,8.7,0,0,1,0,Impressive,1020,5,"Jalan Manoko No. 28, RT. 02 / RW. 08, Desa Cikahuripan, Kampung Cisaroni, Kel. Cikahuripan, Lembang, Lembang, Bandung, Jawa Barat, Indonesia",-6.8049347,107.6090419,Kawah Putih,,,
1684,2173240,Agnes M. Z.,6,04-Jan-22,It 's noisy and dirty. The hotel staff played music at night till bout 10PM though it was Monday. They gave me smelly blanket and I returned it straight away.,RumaTerra B & B,0,0,0,1,0,0,0,0,HOTELS,8.1,0,1,0,0,Convenient,614,4,"Jl Tangkuban Perahu No 22 Lembang, Kabupaten Bandung Barat, Jawa Barat, Indonesia, Lembang, Bandung, Jawa Barat, Indonesia, 40390",-6.8134369,107.623428,Kawah Putih,,,
544,2182759,Laksmi P.,6,30-Jan-22,,Geulis Boutique Hotel & Cafe,0,0,0,1,0,0,0,0,HOTELS,8.9,0,0,1,0,Impressive,624,4,"Jalan Ir. Haji Juanda No.129, Dago, Dago, Bandung, Jawa Barat, Indonesia, 40122",-6.8912262,107.6127002,Sate Building,,,
1186,2239818,Imelda U. B.,8.5,04-Nov-21,"Usually when I stay in a villa, I don't feel comfortable wearing it because it's not clean or the conditions are no longer good. But at kia ora lodge everything is fun and good, I'm not disgusted. Wear equipment there. Because it is clean and comfortable, hopefully it can continue to maintain its cleanliness and comfort. The only complaint is 1 carpet which is a bit dirty.",Kia Ora Lodge,0,0,0,0,0,0,0,1,VILLAS,9.3,0,0,0,1,Superb,15,3,"Jalan Raya Pangalengan km 31.2, Kampung Cihideung, Desa Tribakti Mulya, Kecamatan Pangalengan, Kabupaten Bandung, Jawa Barat., Pangalengan, Bandung, Jawa Barat, Indonesia, 40377",-7.1309973,107.5608312,Kawah Putih,,,
667,2262999,Uli M.,6,13-Mar-22,Check in for 2 deluxe room at 4PM but not ready for 1 room. Need to reminder couple times for our 2nd room and got at 5PM.,De Paviljoen Bandung,0,0,0,1,0,0,0,0,HOTELS,8.8,0,0,1,0,Impressive,4208,4,"Jalan R.E. Martadinata 68, Riau Street, Bandung, Jawa Barat, Indonesia",-6.9063306,107.6205148,Geological Museum,,,
1676,2266249,Vera S.,9.7,05-Sep-20,,Villa de Rossa,0,0,0,0,0,0,0,1,VILLAS,8.6,0,0,1,0,Impressive,2930,4,"Jalan Panorama 1 No. 34-36, Lembang, Kayuambon, Lembang, Kabupaten Bandung Barat, Lembang, Bandung, Jawa Barat, Indonesia, 40390",-6.8148527,107.622976,Kawah Putih,,,
87,2284438,Dony R.,4.8,15-Oct-21,,Hotel Vio Surapati,0,0,0,1,0,0,0,0,HOTELS,8.4,0,0,1,0,Impressive,4307,5,"Jalan Surapati No. 51, Dago, Bandung, Jawa Barat, Indonesia, 40105",-6.899511,107.628641,Sate Building,,,
2216,2288669,,,,,SPOT ON 91056 Eco Tourism Desa Ciburial,0,0,0,0,0,1,0,0,HOMESTAYS,0,0,0,0,0,0,0,0,"98, Jalan Ciburial No.98, Ciburial, Cimenyan, Kab Bandung, Jawa Barat, Indonesia, Bandung, Dago, Bandung, Jawa Barat, Indonesia, 40198",-6.855335,107.6440453,Taman Hutan Raya Juanda,,,
2218,2289204,Suryani I. L.,10,26-Jul-20,"The place is nice, the cleanliness is also okay.",6 BR Hill View Villa with a private pool 2,0,0,0,0,0,0,0,1,VILLAS,9,0,0,1,0,Impressive,10,5,"Jalan Dago Pakar Permai 2 No.53 F, Komplek Resort Dago Pakar Bandung, Dago, Bandung, Jawa Barat, Indonesia, 40198",-6.8660319,107.635536,Taman Hutan Raya Juanda,,,
2201,2291353,Ref,8.8,15-Sep-21,"Spacious room, great view and ambience, friendly staffs. No AC but the weather in the area is really cold (especially at night). Water heater worked well (it has to be or else you're gonna be freezing in the bathroom). Towels are clean and smells good, but need to pay more attention on the cleanliness of bed sheets.",VillaTel Salse,0,0,0,1,0,0,0,0,HOTELS,8.7,0,0,1,0,Impressive,1140,5,"Jalan Sukanegara No 88 Pagerwangi - Lembang Kab. Bandung Barat , Dago Atas, Bandung, Jawa Barat, Indonesia, 40381",-6.8452771,107.6284536,Taman Hutan Raya Juanda,,,
120,2336771,Tri W.,8.3,28-Jun-18,"Car parking space is limited, some must park on the roadside",Buminanienie Guesthouse,0,0,1,0,0,0,0,0,GUEST HOUSES,8.1,0,1,0,0,Convenient,72,4,"Jalan Wira Angun-angun No.15, Citarum, Bandung Wetan, Riau Street, Bandung, Jawa Barat, Indonesia, 40105",-6.9044901,107.6144342,Sate Building,,,
408,2347963,Muhammad I. N.,9.7,07-Feb-22,,Sawunggaling Hotel,0,0,1,0,0,0,0,0,GUEST HOUSES,8.6,0,0,1,0,Impressive,1303,1,"Jl. Sawunggaling No. 13 Bandung , Dago, Bandung, Jawa Barat, Indonesia, 40106",-6.9008714,107.6094152,Sate Building,,,
1256,2355856,Mahendra R. T.,8.5,20-Dec-21,"Good service, friendly and polite staff, good cleanliness, good villas for jungle-style tours that are clean and have a swimming pool. Breakfast is brought to the villa, just my advice for the choice of villa and the picture is adjusted to the price listed.",Log Home Villa Taman Wisata Bougenville,0,0,0,0,0,0,0,1,VILLAS,8.5,0,0,1,0,Impressive,16,5,"Jl Gunung Puntang RT 03/ RW 10 Desa Campaka Mulya Kecamatan Cimaung, Cimaung, Bandung, Jawa Barat, Indonesia, 40373",-7.0851163,107.5634109,Kawah Putih,,,
1827,2391655,Ria M.,8.5,09-Sep-20,"The place is comfortable, the air is cool, the room is unique from the container.",Costay Bajuri House,0,0,1,0,0,0,0,0,GUEST HOUSES,8.8,0,0,1,0,Impressive,35,4,"Jl melati no 18 jl sersan bajuri, cihideung parongpong bandung barat, Lembang, Bandung, Jawa Barat, Indonesia, 40558",-6.8124798,107.59601,Kawah Putih,,,
